{
  "type": "FeatureCollection",
  "features": [
    {
      "type": "Feature",
      "geometry": {
        "type": "Point",
        "coordinates": [
          28.9737479,
          41.0091879
        ]
      },
      "properties": {
        "name": "Constantinople",
        "marker_type": "capital",
        "nation": "Hellas"
      }
    },
    {
      "type": "Feature",
      "geometry": {
        "type": "Point",
        "coordinates": [
          68.8667388,
          36.7180523
        ]
      },
      "properties": {
        "name": "Drapsaka-Kunduz",
        "marker_type": "city",
        "nation": "Arya"
      }
    },
    {
      "type": "Feature",
      "geometry": {
        "type": "Point",
        "coordinates": [
          61.832584,
          37.5994985
        ]
      },
      "properties": {
        "name": "Merv",
        "marker_type": "city",
        "nation": "Arya"
      }
    },
    {
      "type": "Feature",
      "geometry": {
        "type": "Point",
        "coordinates": [
          66.9779799,
          39.6629797
        ]
      },
      "properties": {
        "name": "Samarqand",
        "marker_type": "city",
        "nation": "Arya"
      }
    },
    {
      "type": "Feature",
      "geometry": {
        "type": "Point",
        "coordinates": [
          64.4182607,
          39.7684352
        ]
      },
      "properties": {
        "name": "Bukhara",
        "marker_type": "city",
        "nation": "Arya"
      }
    },
    {
      "type": "Feature",
      "geometry": {
        "type": "Point",
        "coordinates": [
          34.2522472,
          31.2748986
        ]
      },
      "properties": {
        "name": "Raphia",
        "marker_type": "city",
        "nation": "Arya"
      }
    },
    {
      "type": "Feature",
      "geometry": {
        "type": "Point",
        "coordinates": [
          34.4539936,
          31.5159126
        ]
      },
      "properties": {
        "name": "Gaza",
        "marker_type": "city",
        "nation": "Arya"
      }
    },
    {
      "type": "Feature",
      "geometry": {
        "type": "Point",
        "coordinates": [
          43.6770018,
          34.6159894
        ]
      },
      "properties": {
        "name": "Perozhormizd",
        "marker_type": "city",
        "nation": "Arya"
      }
    },
    {
      "type": "Feature",
      "geometry": {
        "type": "Point",
        "coordinates": [
          34.5635952,
          31.6686048
        ]
      },
      "properties": {
        "name": "Ascalum",
        "marker_type": "city",
        "nation": "Arya"
      }
    },
    {
      "type": "Feature",
      "geometry": {
        "type": "Point",
        "coordinates": [
          35.2197313,
          31.7773373
        ]
      },
      "properties": {
        "name": "Jerusalem",
        "marker_type": "city",
        "nation": "Arya"
      }
    },
    {
      "type": "Feature",
      "geometry": {
        "type": "Point",
        "coordinates": [
          34.781192,
          32.0868418
        ]
      },
      "properties": {
        "name": "Jaffa",
        "marker_type": "city",
        "nation": "Arya"
      }
    },
    {
      "type": "Feature",
      "geometry": {
        "type": "Point",
        "coordinates": [
          35.3042847,
          32.7072172
        ]
      },
      "properties": {
        "name": "Nazareth",
        "marker_type": "city",
        "nation": "Arya"
      }
    },
    {
      "type": "Feature",
      "geometry": {
        "type": "Point",
        "coordinates": [
          35.0292801,
          32.8030393
        ]
      },
      "properties": {
        "name": "Haifa",
        "marker_type": "city",
        "nation": "Arya"
      }
    },
    {
      "type": "Feature",
      "geometry": {
        "type": "Point",
        "coordinates": [
          35.1947564,
          33.2706431
        ]
      },
      "properties": {
        "name": "Tyros",
        "marker_type": "city",
        "nation": "Arya"
      }
    },
    {
      "type": "Feature",
      "geometry": {
        "type": "Point",
        "coordinates": [
          35.3698643,
          33.5573094
        ]
      },
      "properties": {
        "name": "Sidon",
        "marker_type": "city",
        "nation": "Arya"
      }
    },
    {
      "type": "Feature",
      "geometry": {
        "type": "Point",
        "coordinates": [
          35.8260979,
          34.4401073
        ]
      },
      "properties": {
        "name": "Tripoli-Perozcyrus",
        "marker_type": "city",
        "nation": "Arya"
      }
    },
    {
      "type": "Feature",
      "geometry": {
        "type": "Point",
        "coordinates": [
          35.6508955,
          34.1267511
        ]
      },
      "properties": {
        "name": "Byblos",
        "marker_type": "city",
        "nation": "Arya"
      }
    },
    {
      "type": "Feature",
      "geometry": {
        "type": "Point",
        "coordinates": [
          35.4854024,
          33.894218
        ]
      },
      "properties": {
        "name": "Beirut",
        "marker_type": "city",
        "nation": "Arya"
      }
    },
    {
      "type": "Feature",
      "geometry": {
        "type": "Point",
        "coordinates": [
          36.7145883,
          34.722895
        ]
      },
      "properties": {
        "name": "Emesa",
        "marker_type": "city",
        "nation": "Arya"
      }
    },
    {
      "type": "Feature",
      "geometry": {
        "type": "Point",
        "coordinates": [
          36.7518349,
          35.1345781
        ]
      },
      "properties": {
        "name": "Epiphaneia",
        "marker_type": "city",
        "nation": "Arya"
      }
    },
    {
      "type": "Feature",
      "geometry": {
        "type": "Point",
        "coordinates": [
          36.3035825,
          33.5086098
        ]
      },
      "properties": {
        "name": "Damascus",
        "marker_type": "city",
        "nation": "Arya"
      }
    },
    {
      "type": "Feature",
      "geometry": {
        "type": "Point",
        "coordinates": [
          37.1581471,
          36.1983222
        ]
      },
      "properties": {
        "name": "Aleppo",
        "marker_type": "city",
        "nation": "Arya"
      }
    },
    {
      "type": "Feature",
      "geometry": {
        "type": "Point",
        "coordinates": [
          41.8591864,
          36.318513
        ]
      },
      "properties": {
        "name": "Shengal",
        "marker_type": "city",
        "nation": "Arya"
      }
    },
    {
      "type": "Feature",
      "geometry": {
        "type": "Point",
        "coordinates": [
          65.7243076,
          31.6050581
        ]
      },
      "properties": {
        "name": "Cyrus-Mundigak",
        "marker_type": "city",
        "nation": "Arya"
      }
    },
    {
      "type": "Feature",
      "geometry": {
        "type": "Point",
        "coordinates": [
          69.1282784,
          34.5394097
        ]
      },
      "properties": {
        "name": "Kabul",
        "marker_type": "city",
        "nation": "Arya"
      }
    },
    {
      "type": "Feature",
      "geometry": {
        "type": "Point",
        "coordinates": [
          62.234461,
          34.3596676
        ]
      },
      "properties": {
        "name": "Artacoana-Areiana",
        "marker_type": "city",
        "nation": "Arya"
      }
    },
    {
      "type": "Feature",
      "geometry": {
        "type": "Point",
        "coordinates": [
          67.558627,
          24.5515382
        ]
      },
      "properties": {
        "name": "Krokala",
        "marker_type": "capital",
        "nation": "Arya"
      }
    },
    {
      "type": "Feature",
      "geometry": {
        "type": "Point",
        "coordinates": [
          53.0382542,
          36.5483438
        ]
      },
      "properties": {
        "name": "Zadrakarta",
        "marker_type": "city",
        "nation": "Arya"
      }
    },
    {
      "type": "Feature",
      "geometry": {
        "type": "Point",
        "coordinates": [
          58.2720081,
          37.9901993
        ]
      },
      "properties": {
        "name": "Nisa",
        "marker_type": "city",
        "nation": "Arya"
      }
    },
    {
      "type": "Feature",
      "geometry": {
        "type": "Point",
        "coordinates": [
          59.5844092,
          36.2981928
        ]
      },
      "properties": {
        "name": "Tus-Mashhad",
        "marker_type": "city",
        "nation": "Arya"
      }
    },
    {
      "type": "Feature",
      "geometry": {
        "type": "Point",
        "coordinates": [
          46.2860658,
          38.0726243
        ]
      },
      "properties": {
        "name": "Tabriz",
        "marker_type": "city",
        "nation": "Arya"
      }
    },
    {
      "type": "Feature",
      "geometry": {
        "type": "Point",
        "coordinates": [
          51.3735395,
          35.717198
        ]
      },
      "properties": {
        "name": "Tehran",
        "marker_type": "city",
        "nation": "Arya"
      }
    },
    {
      "type": "Feature",
      "geometry": {
        "type": "Point",
        "coordinates": [
          56.3030209,
          27.1910487
        ]
      },
      "properties": {
        "name": "Hormoz",
        "marker_type": "city",
        "nation": "Arya"
      }
    },
    {
      "type": "Feature",
      "geometry": {
        "type": "Point",
        "coordinates": [
          52.5458483,
          29.5887016
        ]
      },
      "properties": {
        "name": "Shiraz",
        "marker_type": "city",
        "nation": "Arya"
      }
    },
    {
      "type": "Feature",
      "geometry": {
        "type": "Point",
        "coordinates": [
          47.8037084,
          30.4968479
        ]
      },
      "properties": {
        "name": "Basra",
        "marker_type": "city",
        "nation": "Arya"
      }
    },
    {
      "type": "Feature",
      "geometry": {
        "type": "Point",
        "coordinates": [
          42.8594657,
          35.9040455
        ]
      },
      "properties": {
        "name": "Hatra",
        "marker_type": "city",
        "nation": "Arya"
      }
    },
    {
      "type": "Feature",
      "geometry": {
        "type": "Point",
        "coordinates": [
          44.0201557,
          36.1941386
        ]
      },
      "properties": {
        "name": "Arbela",
        "marker_type": "city",
        "nation": "Arya"
      }
    },
    {
      "type": "Feature",
      "geometry": {
        "type": "Point",
        "coordinates": [
          43.1088865,
          36.3356993
        ]
      },
      "properties": {
        "name": "Mosul-Nineveh",
        "marker_type": "city",
        "nation": "Arya"
      }
    },
    {
      "type": "Feature",
      "geometry": {
        "type": "Point",
        "coordinates": [
          47.1144752,
          34.2896593
        ]
      },
      "properties": {
        "name": "Perozshapur",
        "marker_type": "city",
        "nation": "Arya"
      }
    },
    {
      "type": "Feature",
      "geometry": {
        "type": "Point",
        "coordinates": [
          48.461898,
          34.8049277
        ]
      },
      "properties": {
        "name": "Ekbatana",
        "marker_type": "city",
        "nation": "Arya"
      }
    },
    {
      "type": "Feature",
      "geometry": {
        "type": "Point",
        "coordinates": [
          51.650432,
          32.6701531
        ]
      },
      "properties": {
        "name": "Isfahan",
        "marker_type": "city",
        "nation": "Arya"
      }
    },
    {
      "type": "Feature",
      "geometry": {
        "type": "Point",
        "coordinates": [
          44.5160066,
          33.1142776
        ]
      },
      "properties": {
        "name": "Ctesiphon",
        "marker_type": "city",
        "nation": "Arya"
      }
    },
    {
      "type": "Feature",
      "geometry": {
        "type": "Point",
        "coordinates": [116.407417, 39.904202]
      },
      "properties": {
        "name": "Beijing",
        "marker_type": "capital",
        "nation": "China"
      }
    },
    {
      "type": "Feature",
      "geometry": {
        "type": "Point",
        "coordinates": [121.473728, 31.230393]
      },
      "properties": {
        "name": "Shanghai",
        "marker_type": "city",
        "nation": "China"
      }
    },
    {
      "type": "Feature",
      "geometry": {
        "type": "Point",
        "coordinates": [113.26436, 23.12908]
      },
      "properties": {
        "name": "Guangzhou",
        "marker_type": "city",
        "nation": "China"
      }
    },
    {
      "type": "Feature",
      "geometry": {
        "type": "Point",
        "coordinates": [118.796877, 32.060255]
      },
      "properties": {
        "name": "Nanjing",
        "marker_type": "city",
        "nation": "China"
      }
    },
    {
      "type": "Feature",
      "geometry": {
        "type": "Point",
        "coordinates": [114.305469, 30.59276]
      },
      "properties": {
        "name": "Wuhan",
        "marker_type": "city",
        "nation": "China"
      }
    },
    {
      "type": "Feature",
      "geometry": {
        "type": "Point",
        "coordinates": [104.06651, 30.572269]
      },
      "properties": {
        "name": "Chengdu",
        "marker_type": "city",
        "nation": "China"
      }
    },
    {
      "type": "Feature",
      "geometry": {
        "type": "Point",
        "coordinates": [108.940178, 34.341568]
      },
      "properties": {
        "name": "Xi'an",
        "marker_type": "city",
        "nation": "China"
      }
    },
    {
      "type": "Feature",
      "geometry": {
        "type": "Point",
        "coordinates": [106.551556, 29.56301]
      },
      "properties": {
        "name": "Chongqing",
        "marker_type": "city",
        "nation": "China"
      }
    },
    {
      "type": "Feature",
      "geometry": {
        "type": "Point",
        "coordinates": [123.42944, 41.796767]
      },
      "properties": {
        "name": "Shenyang",
        "marker_type": "city",
        "nation": "China"
      }
    },
    {
      "type": "Feature",
      "geometry": {
        "type": "Point",
        "coordinates": [126.642423, 45.756195]
      },
      "properties": {
        "name": "Harbin",
        "marker_type": "city",
        "nation": "China"
      }
    },
    {
      "type": "Feature",
      "geometry": {
        "type": "Point",
        "coordinates": [131.885278, 43.119792]
      },
      "properties": {
        "name": "Vladivostok",
        "marker_type": "city",
        "nation": "China"
      }
    },
    {
      "type": "Feature",
      "geometry": {
        "type": "Point",
        "coordinates": [121.565414, 25.032964]
      },
      "properties": {
        "name": "Taipei",
        "marker_type": "city",
        "nation": "China"
      }
    },
    {
      "type": "Feature",
      "geometry": {
        "type": "Point",
        "coordinates": [119.30626, 26.075302]
      },
      "properties": {
        "name": "Fuzhou",
        "marker_type": "city",
        "nation": "China"
      }
    },
    {
      "type": "Feature",
      "geometry": {
        "type": "Point",
        "coordinates": [120.382602, 36.067116]
      },
      "properties": {
        "name": "Qingdao",
        "marker_type": "city",
        "nation": "China"
      }
    },
    {
      "type": "Feature",
      "geometry": {
        "type": "Point",
        "coordinates": [106.917315, 47.886399]
      },
      "properties": {
        "name": "Ulaanbaatar",
        "marker_type": "capital",
        "nation": "Mongolia"
      }
    },
    {
      "type": "Feature",
      "geometry": {
        "type": "Point",
        "coordinates": [114.532583, 48.072558]
      },
      "properties": {
        "name": "Choibalsan",
        "marker_type": "city",
        "nation": "Mongolia"
      }
    },
    {
      "type": "Feature",
      "geometry": {
        "type": "Point",
        "coordinates": [117.200983, 39.084158]
      },
      "properties": {
        "name": "Tianjin",
        "marker_type": "city",
        "nation": "China"
      }
    },
    {
      "type": "Feature",
      "geometry": {
        "type": "Point",
        "coordinates": [121.614682, 38.914003]
      },
      "properties": {
        "name": "Dalian",
        "marker_type": "city",
        "nation": "China"
      }
    },
    {
      "type": "Feature",
      "geometry": {
        "type": "Point",
        "coordinates": [125.323544, 43.817071]
      },
      "properties": {
        "name": "Changchun",
        "marker_type": "city",
        "nation": "China"
      }
    },
    {
      "type": "Feature",
      "geometry": {
        "type": "Point",
        "coordinates": [120.15507, 30.274085]
      },
      "properties": {
        "name": "Hangzhou",
        "marker_type": "city",
        "nation": "China"
      }
    },
    {
      "type": "Feature",
      "geometry": {
        "type": "Point",
        "coordinates": [121.549792, 29.868336]
      },
      "properties": {
        "name": "Ningbo",
        "marker_type": "city",
        "nation": "China"
      }
    },
    {
      "type": "Feature",
      "geometry": {
        "type": "Point",
        "coordinates": [118.089425, 24.479834]
      },
      "properties": {
        "name": "Xiamen",
        "marker_type": "city",
        "nation": "China"
      }
    },
    {
      "type": "Feature",
      "geometry": {
        "type": "Point",
        "coordinates": [114.057865, 22.543096]
      },
      "properties": {
        "name": "Shenzhen",
        "marker_type": "city",
        "nation": "China"
      }
    },
    {
      "type": "Feature",
      "geometry": {
        "type": "Point",
        "coordinates": [114.1694, 22.3193]
      },
      "properties": {
        "name": "Hong Kong",
        "marker_type": "city",
        "nation": "China"
      }
    },
    {
      "type": "Feature",
      "geometry": {
        "type": "Point",
        "coordinates": [113.5439, 22.1987]
      },
      "properties": {
        "name": "Macau",
        "marker_type": "city",
        "nation": "China"
      }
    },
    {
      "type": "Feature",
      "geometry": {
        "type": "Point",
        "coordinates": [112.938814, 28.228209]
      },
      "properties": {
        "name": "Changsha",
        "marker_type": "city",
        "nation": "China"
      }
    },
    {
      "type": "Feature",
      "geometry": {
        "type": "Point",
        "coordinates": [102.710002, 25.045806]
      },
      "properties": {
        "name": "Kunming",
        "marker_type": "city",
        "nation": "China"
      }
    },
    {
      "type": "Feature",
      "geometry": {
        "type": "Point",
        "coordinates": [108.366543, 22.817002]
      },
      "properties": {
        "name": "Nanning",
        "marker_type": "city",
        "nation": "China"
      }
    },
    {
      "type": "Feature",
      "geometry": {
        "type": "Point",
        "coordinates": [103.83417, 36.06138]
      },
      "properties": {
        "name": "Lanzhou",
        "marker_type": "city",
        "nation": "China"
      }
    },
    {
      "type": "Feature",
      "geometry": {
        "type": "Point",
        "coordinates": [111.74918, 40.84149]
      },
      "properties": {
        "name": "Hohhot",
        "marker_type": "city",
        "nation": "China"
      }
    },
    {
      "type": "Feature",
      "geometry": {
        "type": "Point",
        "coordinates": [120.312019, 22.627278]
      },
      "properties": {
        "name": "Kaohsiung",
        "marker_type": "city",
        "nation": "China"
      }
    },
    {
      "type": "Feature",
      "geometry": {
        "type": "Point",
        "coordinates": [105.922497, 49.486721]
      },
      "properties": {
        "name": "Darkhan",
        "marker_type": "city",
        "nation": "Mongolia"
      }
    },
    {
      "type": "Feature",
      "geometry": {
        "type": "Point",
        "coordinates": [22.9444, 40.6401]
      },
      "properties": {
        "name": "Thessalonica",
        "marker_type": "city",
        "nation": "Hellas"
      }
    },
    {
      "type": "Feature",
      "geometry": {
        "type": "Point",
        "coordinates": [23.7275, 37.9838]
      },
      "properties": {
        "name": "Athenae",
        "marker_type": "city",
        "nation": "Hellas"
      }
    },
    {
      "type": "Feature",
      "geometry": {
        "type": "Point",
        "coordinates": [21.7344, 38.2466]
      },
      "properties": {
        "name": "Patrai",
        "marker_type": "city",
        "nation": "Hellas"
      }
    },
    {
      "type": "Feature",
      "geometry": {
        "type": "Point",
        "coordinates": [25.1442, 35.3387]
      },
      "properties": {
        "name": "Herakleion",
        "marker_type": "city",
        "nation": "Hellas"
      }
    },
    {
      "type": "Feature",
      "geometry": {
        "type": "Point",
        "coordinates": [22.4131, 39.6390]
      },
      "properties": {
        "name": "Larisa",
        "marker_type": "city",
        "nation": "Hellas"
      }
    },
    {
      "type": "Feature",
      "geometry": {
        "type": "Point",
        "coordinates": [32.8597, 39.9334]
      },
      "properties": {
        "name": "Angora",
        "marker_type": "city",
        "nation": "Hellas"
      }
    },
    {
      "type": "Feature",
      "geometry": {
        "type": "Point",
        "coordinates": [39.7168, 41.0051]
      },
      "properties": {
        "name": "Trebizond",
        "marker_type": "city",
        "nation": "Hellas"
      }
    },
    {
      "type": "Feature",
      "geometry": {
        "type": "Point",
        "coordinates": [27.1384, 38.4237]
      },
      "properties": {
        "name": "Smyrna",
        "marker_type": "city",
        "nation": "Hellas"
      }
    },
    {
      "type": "Feature",
      "geometry": {
        "type": "Point",
        "coordinates": [26.2389, 39.9575]
      },
      "properties": {
        "name": "Troy",
        "marker_type": "city",
        "nation": "Hellas"
      }
    },
    {
      "type": "Feature",
      "geometry": {
        "type": "Point",
        "coordinates": [29.0610, 40.1815]
      },
      "properties": {
        "name": "Prusa",
        "marker_type": "city",
        "nation": "Hellas"
      }
    },
    {
      "type": "Feature",
      "geometry": {
        "type": "Point",
        "coordinates": [26.5568, 41.6764]
      },
      "properties": {
        "name": "Adrianople",
        "marker_type": "city",
        "nation": "Hellas"
      }
    },
    {
      "type": "Feature",
      "geometry": {
        "type": "Point",
        "coordinates": [29.7131, 40.4286]
      },
      "properties": {
        "name": "Nicaea",
        "marker_type": "city",
        "nation": "Hellas"
      }
    },
    {
      "type": "Feature",
      "geometry": {
        "type": "Point",
        "coordinates": [32.4833, 37.8667]
      },
      "properties": {
        "name": "Iconium",
        "marker_type": "city",
        "nation": "Hellas"
      }
    },
    {
      "type": "Feature",
      "geometry": {
        "type": "Point",
        "coordinates": [35.1531, 42.0264]
      },
      "properties": {
        "name": "Sinope",
        "marker_type": "city",
        "nation": "Hellas"
      }
    },
    {
      "type": "Feature",
      "geometry": {
        "type": "Point",
        "coordinates": [30.7133, 36.8841]
      },
      "properties": {
        "name": "Attalea",
        "marker_type": "city",
        "nation": "Hellas"
      }
    },
    {
      "type": "Feature",
      "geometry": {
        "type": "Point",
        "coordinates": [27.3414, 37.9409]
      },
      "properties": {
        "name": "Ephesus",
        "marker_type": "city",
        "nation": "Hellas"
      }
    },
    {
      "type": "Feature",
      "geometry": {
        "type": "Point",
        "coordinates": [29.9167, 40.7667]
      },
      "properties": {
        "name": "Nicomedia",
        "marker_type": "city",
        "nation": "Hellas"
      }
    },
    {
      "type": "Feature",
      "geometry": {
        "type": "Point",
        "coordinates": [24.7453, 42.1354]
      },
      "properties": {
        "name": "Philippopolis",
        "marker_type": "city",
        "nation": "Hellas"
      }
    },
    {
      "type": "Feature",
      "geometry": {
        "type": "Point",
        "coordinates": [21.8954, 43.3209]
      },
      "properties": {
        "name": "Naissus",
        "marker_type": "city",
        "nation": "Hellas"
      }
    },
    {
      "type": "Feature",
      "geometry": {
        "type": "Point",
        "coordinates": [19.4414, 41.3236]
      },
      "properties": {
        "name": "Dyrrhachium",
        "marker_type": "city",
        "nation": "Hellas"
      }
    },
    {
      "type": "Feature",
      "geometry": {
        "type": "Point",
        "coordinates": [16.4402, 43.5081]
      },
      "properties": {
        "name": "Spalatum",
        "marker_type": "city",
        "nation": "Hellas"
      }
    },
    {
      "type": "Feature",
      "geometry": {
        "type": "Point",
        "coordinates": [20.4489, 44.7872]
      },
      "properties": {
        "name": "Singidunum",
        "marker_type": "city",
        "nation": "Hellas"
      }
    },
    {
      "type": "Feature",
      "geometry": {
        "type": "Point",
        "coordinates": [22.4297, 37.0745]
      },
      "properties": {
        "name": "Sparte",
        "marker_type": "city",
        "nation": "Hellas"
      }
    },
    {
      "type": "Feature",
      "geometry": {
        "type": "Point",
        "coordinates": [22.9386, 37.9386]
      },
      "properties": {
        "name": "Korinthos",
        "marker_type": "city",
        "nation": "Hellas"
      }
    },
    {
      "type": "Feature",
      "geometry": {
        "type": "Point",
        "coordinates": [23.3204, 38.3226]
      },
      "properties": {
        "name": "Thebai",
        "marker_type": "city",
        "nation": "Hellas"
      }
    },
    {
      "type": "Feature",
      "geometry": {
        "type": "Point",
        "coordinates": [22.7294, 37.6344]
      },
      "properties": {
        "name": "Argos",
        "marker_type": "city",
        "nation": "Hellas"
      }
    },
    {
      "type": "Feature",
      "geometry": {
        "type": "Point",
        "coordinates": [22.8016, 37.5673]
      },
      "properties": {
        "name": "Nauplion",
        "marker_type": "city",
        "nation": "Hellas"
      }
    },
    {
      "type": "Feature",
      "geometry": {
        "type": "Point",
        "coordinates": [24.2846, 41.0131]
      },
      "properties": {
        "name": "Philippoi",
        "marker_type": "city",
        "nation": "Hellas"
      }
    },
    {
      "type": "Feature",
      "geometry": {
        "type": "Point",
        "coordinates": [23.3219, 42.6977]
      },
      "properties": {
        "name": "Serdike",
        "marker_type": "city",
        "nation": "Hellas"
      }
    },
    {
      "type": "Feature",
      "geometry": {
        "type": "Point",
        "coordinates": [27.9147, 43.2141]
      },
      "properties": {
        "name": "Odessos",
        "marker_type": "city",
        "nation": "Hellas"
      }
    },
    {
      "type": "Feature",
      "geometry": {
        "type": "Point",
        "coordinates": [27.4626, 42.5048]
      },
      "properties": {
        "name": "Pyrgos",
        "marker_type": "city",
        "nation": "Hellas"
      }
    },
    {
      "type": "Feature",
      "geometry": {
        "type": "Point",
        "coordinates": [21.4314, 42.0020]
      },
      "properties": {
        "name": "Skoupoi",
        "marker_type": "city",
        "nation": "Hellas"
      }
    },
    {
      "type": "Feature",
      "geometry": {
        "type": "Point",
        "coordinates": [20.8016, 41.1172]
      },
      "properties": {
        "name": "Lychnidos",
        "marker_type": "city",
        "nation": "Hellas"
      }
    },
    {
      "type": "Feature",
      "geometry": {
        "type": "Point",
        "coordinates": [18.0944, 42.6507]
      },
      "properties": {
        "name": "Ragousa",
        "marker_type": "city",
        "nation": "Hellas"
      }
    },
    {
      "type": "Feature",
      "geometry": {
        "type": "Point",
        "coordinates": [16.4828, 43.5369]
      },
      "properties": {
        "name": "Salona",
        "marker_type": "city",
        "nation": "Hellas"
      }
    },
    {
      "type": "Feature",
      "geometry": {
        "type": "Point",
        "coordinates": [29.0325, 40.9910]
      },
      "properties": {
        "name": "Chalkedon",
        "marker_type": "city",
        "nation": "Hellas"
      }
    },
    {
      "type": "Feature",
      "geometry": {
        "type": "Point",
        "coordinates": [27.1842, 39.1325]
      },
      "properties": {
        "name": "Pergamon",
        "marker_type": "city",
        "nation": "Hellas"
      }
    },
    {
      "type": "Feature",
      "geometry": {
        "type": "Point",
        "coordinates": [27.4242, 37.0344]
      },
      "properties": {
        "name": "Halikarnassos",
        "marker_type": "city",
        "nation": "Hellas"
      }
    },
    {
      "type": "Feature",
      "geometry": {
        "type": "Point",
        "coordinates": [28.0403, 38.4883]
      },
      "properties": {
        "name": "Sardeis",
        "marker_type": "city",
        "nation": "Hellas"
      }
    },
    {
      "type": "Feature",
      "geometry": {
        "type": "Point",
        "coordinates": [30.5206, 39.7767]
      },
      "properties": {
        "name": "Dorylaion",
        "marker_type": "city",
        "nation": "Hellas"
      }
    },
    {
      "type": "Feature",
      "geometry": {
        "type": "Point",
        "coordinates": [35.4853, 38.7205]
      },
      "properties": {
        "name": "Kaisareia",
        "marker_type": "city",
        "nation": "Hellas"
      }
    },
    {
      "type": "Feature",
      "geometry": {
        "type": "Point",
        "coordinates": [37.0150, 39.7505]
      },
      "properties": {
        "name": "Sebasteia",
        "marker_type": "city",
        "nation": "Hellas"
      }
    },
    {
      "type": "Feature",
      "geometry": {
        "type": "Point",
        "coordinates": [35.8333, 40.6500]
      },
      "properties": {
        "name": "Amaseia",
        "marker_type": "city",
        "nation": "Hellas"
      }
    },
    {
      "type": "Feature",
      "geometry": {
        "type": "Point",
        "coordinates": [34.8951, 36.9164]
      },
      "properties": {
        "name": "Tarsos",
        "marker_type": "city",
        "nation": "Hellas"
      }
    },
    {
      "type": "Feature",
      "geometry": {
        "type": "Point",
        "coordinates": [27.8847, 40.3842]
      },
      "properties": {
        "name": "Kyzikos",
        "marker_type": "city",
        "nation": "Hellas"
      }
    },
    {
      "type": "Feature",
      "geometry": {
        "type": "Point",
        "coordinates": [28.5192, 38.3483]
      },
      "properties": {
        "name": "Philadelphia",
        "marker_type": "city",
        "nation": "Hellas"
      }
    },
    {
      "type": "Feature",
      "geometry": {
        "type": "Point",
        "coordinates": [12.4964, 41.9028]
      },
      "properties": {
        "name": "Rhome",
        "marker_type": "city",
        "nation": "Hellas"
      }
    },
    {
      "type": "Feature",
      "geometry": {
        "type": "Point",
        "coordinates": [14.2681, 40.8518]
      },
      "properties": {
        "name": "Neapolis",
        "marker_type": "city",
        "nation": "Hellas"
      }
    },
    {
      "type": "Feature",
      "geometry": {
        "type": "Point",
        "coordinates": [9.1900, 45.4642]
      },
      "properties": {
        "name": "Mediolanon",
        "marker_type": "city",
        "nation": "Hellas"
      }
    },
    {
      "type": "Feature",
      "geometry": {
        "type": "Point",
        "coordinates": [12.3155, 45.4408]
      },
      "properties": {
        "name": "Venetia",
        "marker_type": "city",
        "nation": "Hellas"
      }
    },
    {
      "type": "Feature",
      "geometry": {
        "type": "Point",
        "coordinates": [12.2035, 44.4184]
      },
      "properties": {
        "name": "Rabeuna",
        "marker_type": "city",
        "nation": "Hellas"
      }
    },
    {
      "type": "Feature",
      "geometry": {
        "type": "Point",
        "coordinates": [8.9463, 44.4056]
      },
      "properties": {
        "name": "Genoua",
        "marker_type": "city",
        "nation": "Hellas"
      }
    },
    {
      "type": "Feature",
      "geometry": {
        "type": "Point",
        "coordinates": [13.3615, 38.1157]
      },
      "properties": {
        "name": "Panormos",
        "marker_type": "city",
        "nation": "Hellas"
      }
    },
    {
      "type": "Feature",
      "geometry": {
        "type": "Point",
        "coordinates": [15.2866, 37.0755]
      },
      "properties": {
        "name": "Syrakousai",
        "marker_type": "city",
        "nation": "Hellas"
      }
    },
    {
      "type": "Feature",
      "geometry": {
        "type": "Point",
        "coordinates": [11.2558, 43.7696]
      },
      "properties": {
        "name": "Florentia",
        "marker_type": "city",
        "nation": "Hellas"
      }
    },
    {
      "type": "Feature",
      "geometry": {
        "type": "Point",
        "coordinates": [7.6869, 45.0703]
      },
      "properties": {
        "name": "Taurinon",
        "marker_type": "city",
        "nation": "Hellas"
      }
    },
    {
      "type": "Feature",
      "geometry": {
        "type": "Point",
        "coordinates": [16.8719, 41.1171]
      },
      "properties": {
        "name": "Barion",
        "marker_type": "city",
        "nation": "Hellas"
      }
    },
    {
      "type": "Feature",
      "geometry": {
        "type": "Point",
        "coordinates": [17.2442, 40.4644]
      },
      "properties": {
        "name": "Taras",
        "marker_type": "city",
        "nation": "Hellas"
      }
    },
    {
      "type": "Feature",
      "geometry": {
        "type": "Point",
        "coordinates": [15.5500, 38.1936]
      },
      "properties": {
        "name": "Messene",
        "marker_type": "city",
        "nation": "Hellas"
      }
    },
    {
      "type": "Feature",
      "geometry": {
        "type": "Point",
        "coordinates": [15.6448, 38.1144]
      },
      "properties": {
        "name": "Rhegion",
        "marker_type": "city",
        "nation": "Hellas"
      }
    },
    {
      "type": "Feature",
      "geometry": {
        "type": "Point",
        "coordinates": [13.5189, 43.6158]
      },
      "properties": {
        "name": "Ankon",
        "marker_type": "city",
        "nation": "Hellas"
      }
    },
    {
      "type": "Feature",
      "geometry": {
        "type": "Point",
        "coordinates": [17.9418, 40.6321]
      },
      "properties": {
        "name": "Brentesion",
        "marker_type": "city",
        "nation": "Hellas"
      }
    },
    {
      "type": "Feature",
      "geometry": {
        "type": "Point",
        "coordinates": [11.3426, 44.4949]
      },
      "properties": {
        "name": "Bononia",
        "marker_type": "city",
        "nation": "Hellas"
      }
    },
    {
      "type": "Feature",
      "geometry": {
        "type": "Point",
        "coordinates": [8.7386, 41.9257]
      },
      "properties": {
        "name": "Adiakion",
        "marker_type": "city",
        "nation": "Hellas"
      }
    },
    {
      "type": "Feature",
      "geometry": {
        "type": "Point",
        "coordinates": [9.5128, 42.1047]
      },
      "properties": {
        "name": "Alalia",
        "marker_type": "city",
        "nation": "Hellas"
      }
    },
    {
      "type": "Feature",
      "geometry": {
        "type": "Point",
        "coordinates": [2.3522, 48.8566]
      },
      "properties": {
        "name": "Paris",
        "marker_type": "city",
        "nation": "Hellas"
      }
    },
    {
      "type": "Feature",
      "geometry": {
        "type": "Point",
        "coordinates": [5.3698, 43.2965]
      },
      "properties": {
        "name": "Marseille",
        "marker_type": "city",
        "nation": "Hellas"
      }
    },
    {
      "type": "Feature",
      "geometry": {
        "type": "Point",
        "coordinates": [4.8357, 45.7640]
      },
      "properties": {
        "name": "Lyon",
        "marker_type": "city",
        "nation": "Hellas"
      }
    },
    {
      "type": "Feature",
      "geometry": {
        "type": "Point",
        "coordinates": [1.4442, 43.6047]
      },
      "properties": {
        "name": "Toulouse",
        "marker_type": "city",
        "nation": "Hellas"
      }
    },
    {
      "type": "Feature",
      "geometry": {
        "type": "Point",
        "coordinates": [7.2661, 43.7102]
      },
      "properties": {
        "name": "Nice",
        "marker_type": "city",
        "nation": "Hellas"
      }
    },
    {
      "type": "Feature",
      "geometry": {
        "type": "Point",
        "coordinates": [-1.5536, 47.2184]
      },
      "properties": {
        "name": "Nantes",
        "marker_type": "city",
        "nation": "Hellas"
      }
    },
    {
      "type": "Feature",
      "geometry": {
        "type": "Point",
        "coordinates": [7.7521, 48.5734]
      },
      "properties": {
        "name": "Strasbourg",
        "marker_type": "city",
        "nation": "Hellas"
      }
    },
    {
      "type": "Feature",
      "geometry": {
        "type": "Point",
        "coordinates": [-0.5792, 44.8378]
      },
      "properties": {
        "name": "Bordeaux",
        "marker_type": "city",
        "nation": "Hellas"
      }
    },
    {
      "type": "Feature",
      "geometry": {
        "type": "Point",
        "coordinates": [3.0573, 50.6292]
      },
      "properties": {
        "name": "Lille",
        "marker_type": "city",
        "nation": "Hellas"
      }
    },
    {
      "type": "Feature",
      "geometry": {
        "type": "Point",
        "coordinates": [-1.6778, 48.1173]
      },
      "properties": {
        "name": "Rennes",
        "marker_type": "city",
        "nation": "Appalachia"
      }
    },
    {
      "type": "Feature",
      "geometry": {
        "type": "Point",
        "coordinates": [4.0333, 49.2583]
      },
      "properties": {
        "name": "Reims",
        "marker_type": "city",
        "nation": "Hellas"
      }
    },
    {
      "type": "Feature",
      "geometry": {
        "type": "Point",
        "coordinates": [0.1083, 49.4944]
      },
      "properties": {
        "name": "Le Havre",
        "marker_type": "city",
        "nation": "Hellas"
      }
    },
    {
      "type": "Feature",
      "geometry": {
        "type": "Point",
        "coordinates": [5.9280, 43.1242]
      },
      "properties": {
        "name": "Toulon",
        "marker_type": "city",
        "nation": "Hellas"
      }
    },
    {
      "type": "Feature",
      "geometry": {
        "type": "Point",
        "coordinates": [5.7245, 45.1885]
      },
      "properties": {
        "name": "Grenoble",
        "marker_type": "city",
        "nation": "Hellas"
      }
    },
    {
      "type": "Feature",
      "geometry": {
        "type": "Point",
        "coordinates": [5.0415, 47.3220]
      },
      "properties": {
        "name": "Dijon",
        "marker_type": "city",
        "nation": "Hellas"
      }
    },
    {
      "type": "Feature",
      "geometry": {
        "type": "Point",
        "coordinates": [-4.4861, 48.3904]
      },
      "properties": {
        "name": "Brest",
        "marker_type": "city",
        "nation": "Appalachia"
      }
    },
    {
      "type": "Feature",
      "geometry": {
        "type": "Point",
        "coordinates": [3.2012, 45.7772]
      },
      "properties": {
        "name": "Clermont-Ferrand",
        "marker_type": "city",
        "nation": "Hellas"
      }
    },
    {
      "type": "Feature",
      "geometry": {
        "type": "Point",
        "coordinates": [1.2588, 45.8336]
      },
      "properties": {
        "name": "Limoges",
        "marker_type": "city",
        "nation": "Hellas"
      }
    },
    {
      "type": "Feature",
      "geometry": {
        "type": "Point",
        "coordinates": [-0.3707, 49.1829]
      },
      "properties": {
        "name": "Caen",
        "marker_type": "city",
        "nation": "Hellas"
      }
    },
    {
      "type": "Feature",
      "geometry": {
        "type": "Point",
        "coordinates": [0.6848, 47.3941]
      },
      "properties": {
        "name": "Tours",
        "marker_type": "city",
        "nation": "Hellas"
      }
    },
    {
      "type": "Feature",
      "geometry": {
        "type": "Point",
        "coordinates": [1.9085, 47.9030]
      },
      "properties": {
        "name": "Orléans",
        "marker_type": "city",
        "nation": "Hellas"
      }
    },
    {
      "type": "Feature",
      "geometry": {
        "type": "Point",
        "coordinates": [0.1996, 48.0061]
      },
      "properties": {
        "name": "Le Mans",
        "marker_type": "city",
        "nation": "Hellas"
      }
    },
    {
      "type": "Feature",
      "geometry": {
        "type": "Point",
        "coordinates": [1.0993, 49.4431]
      },
      "properties": {
        "name": "Rouen",
        "marker_type": "city",
        "nation": "Hellas"
      }
    },
    {
      "type": "Feature",
      "geometry": {
        "type": "Point",
        "coordinates": [2.2957, 49.8941]
      },
      "properties": {
        "name": "Amiens",
        "marker_type": "city",
        "nation": "Hellas"
      }
    },
    {
      "type": "Feature",
      "geometry": {
        "type": "Point",
        "coordinates": [6.1757, 49.1193]
      },
      "properties": {
        "name": "Metz",
        "marker_type": "city",
        "nation": "Hellas"
      }
    },
    {
      "type": "Feature",
      "geometry": {
        "type": "Point",
        "coordinates": [6.1834, 48.6921]
      },
      "properties": {
        "name": "Nancy",
        "marker_type": "city",
        "nation": "Hellas"
      }
    },
    {
      "type": "Feature",
      "geometry": {
        "type": "Point",
        "coordinates": [4.8055, 43.9493]
      },
      "properties": {
        "name": "Avignon",
        "marker_type": "city",
        "nation": "Hellas"
      }
    },
    {
      "type": "Feature",
      "geometry": {
        "type": "Point",
        "coordinates": [2.8956, 42.6986]
      },
      "properties": {
        "name": "Perpignan",
        "marker_type": "city",
        "nation": "Hellas"
      }
    },
    {
      "type": "Feature",
      "geometry": {
        "type": "Point",
        "coordinates": [13.4050, 52.5200]
      },
      "properties": {
        "name": "Berlin",
        "marker_type": "city",
        "nation": "Hellas"
      }
    },
    {
      "type": "Feature",
      "geometry": {
        "type": "Point",
        "coordinates": [9.9937, 53.5511]
      },
      "properties": {
        "name": "Hamburg",
        "marker_type": "city",
        "nation": "Hellas"
      }
    },
    {
      "type": "Feature",
      "geometry": {
        "type": "Point",
        "coordinates": [11.5820, 48.1351]
      },
      "properties": {
        "name": "München",
        "marker_type": "city",
        "nation": "Hellas"
      }
    },
    {
      "type": "Feature",
      "geometry": {
        "type": "Point",
        "coordinates": [6.9583, 50.9375]
      },
      "properties": {
        "name": "Köln",
        "marker_type": "city",
        "nation": "Hellas"
      }
    },
    {
      "type": "Feature",
      "geometry": {
        "type": "Point",
        "coordinates": [8.6821, 50.1109]
      },
      "properties": {
        "name": "Frankfurt am Main",
        "marker_type": "city",
        "nation": "Hellas"
      }
    },
    {
      "type": "Feature",
      "geometry": {
        "type": "Point",
        "coordinates": [9.1813, 48.7758]
      },
      "properties": {
        "name": "Stuttgart",
        "marker_type": "city",
        "nation": "Hellas"
      }
    },
    {
      "type": "Feature",
      "geometry": {
        "type": "Point",
        "coordinates": [6.7735, 51.2277]
      },
      "properties": {
        "name": "Düsseldorf",
        "marker_type": "city",
        "nation": "Hellas"
      }
    },
    {
      "type": "Feature",
      "geometry": {
        "type": "Point",
        "coordinates": [12.3731, 51.3396]
      },
      "properties": {
        "name": "Leipzig",
        "marker_type": "city",
        "nation": "Hellas"
      }
    },
    {
      "type": "Feature",
      "geometry": {
        "type": "Point",
        "coordinates": [13.7373, 51.0504]
      },
      "properties": {
        "name": "Dresden",
        "marker_type": "city",
        "nation": "Hellas"
      }
    },
    {
      "type": "Feature",
      "geometry": {
        "type": "Point",
        "coordinates": [8.8017, 53.0793]
      },
      "properties": {
        "name": "Bremen",
        "marker_type": "city",
        "nation": "Hellas"
      }
    },
    {
      "type": "Feature",
      "geometry": {
        "type": "Point",
        "coordinates": [4.8952, 52.3702]
      },
      "properties": {
        "name": "Amsterdam",
        "marker_type": "city",
        "nation": "Hellas"
      }
    },
    {
      "type": "Feature",
      "geometry": {
        "type": "Point",
        "coordinates": [4.4777, 51.9244]
      },
      "properties": {
        "name": "Rotterdam",
        "marker_type": "city",
        "nation": "Hellas"
      }
    },
    {
      "type": "Feature",
      "geometry": {
        "type": "Point",
        "coordinates": [4.3007, 52.0705]
      },
      "properties": {
        "name": "Den Haag",
        "marker_type": "city",
        "nation": "Hellas"
      }
    },
    {
      "type": "Feature",
      "geometry": {
        "type": "Point",
        "coordinates": [5.1214, 52.0907]
      },
      "properties": {
        "name": "Utrecht",
        "marker_type": "city",
        "nation": "Hellas"
      }
    },
    {
      "type": "Feature",
      "geometry": {
        "type": "Point",
        "coordinates": [4.3517, 50.8503]
      },
      "properties": {
        "name": "Brussel",
        "marker_type": "city",
        "nation": "Hellas"
      }
    },
    {
      "type": "Feature",
      "geometry": {
        "type": "Point",
        "coordinates": [4.4025, 51.2194]
      },
      "properties": {
        "name": "Antwerpen",
        "marker_type": "city",
        "nation": "Hellas"
      }
    },
    {
      "type": "Feature",
      "geometry": {
        "type": "Point",
        "coordinates": [5.5797, 50.6326]
      },
      "properties": {
        "name": "Liège",
        "marker_type": "city",
        "nation": "Hellas"
      }
    },
    {
      "type": "Feature",
      "geometry": {
        "type": "Point",
        "coordinates": [6.1319, 49.6117]
      },
      "properties": {
        "name": "Luxembourg",
        "marker_type": "city",
        "nation": "Hellas"
      }
    },
    {
      "type": "Feature",
      "geometry": {
        "type": "Point",
        "coordinates": [11.6276, 52.1205]
      },
      "properties": {
        "name": "Magdeburg",
        "marker_type": "city",
        "nation": "Hellas"
      }
    },
    {
      "type": "Feature",
      "geometry": {
        "type": "Point",
        "coordinates": [13.0657, 52.3989]
      },
      "properties": {
        "name": "Potsdam",
        "marker_type": "city",
        "nation": "Hellas"
      }
    },
    {
      "type": "Feature",
      "geometry": {
        "type": "Point",
        "coordinates": [9.7320, 52.3759]
      },
      "properties": {
        "name": "Hannover",
        "marker_type": "city",
        "nation": "Hellas"
      }
    },
    {
      "type": "Feature",
      "geometry": {
        "type": "Point",
        "coordinates": [11.0768, 49.4521]
      },
      "properties": {
        "name": "Nürnberg",
        "marker_type": "city",
        "nation": "Hellas"
      }
    },
    {
      "type": "Feature",
      "geometry": {
        "type": "Point",
        "coordinates": [7.0116, 51.4556]
      },
      "properties": {
        "name": "Essen",
        "marker_type": "city",
        "nation": "Hellas"
      }
    },
    {
      "type": "Feature",
      "geometry": {
        "type": "Point",
        "coordinates": [7.4653, 51.5136]
      },
      "properties": {
        "name": "Dortmund",
        "marker_type": "city",
        "nation": "Hellas"
      }
    },
    {
      "type": "Feature",
      "geometry": {
        "type": "Point",
        "coordinates": [10.1228, 54.3233]
      },
      "properties": {
        "name": "Kiel",
        "marker_type": "city",
        "nation": "Hellas"
      }
    },
    {
      "type": "Feature",
      "geometry": {
        "type": "Point",
        "coordinates": [12.1008, 54.0834]
      },
      "properties": {
        "name": "Rostock",
        "marker_type": "city",
        "nation": "Hellas"
      }
    },
    {
      "type": "Feature",
      "geometry": {
        "type": "Point",
        "coordinates": [5.4697, 51.4416]
      },
      "properties": {
        "name": "Eindhoven",
        "marker_type": "city",
        "nation": "Hellas"
      }
    },
    {
      "type": "Feature",
      "geometry": {
        "type": "Point",
        "coordinates": [6.5665, 53.2194]
      },
      "properties": {
        "name": "Groningen",
        "marker_type": "city",
        "nation": "Hellas"
      }
    },
    {
      "type": "Feature",
      "geometry": {
        "type": "Point",
        "coordinates": [3.7174, 51.0543]
      },
      "properties": {
        "name": "Gent",
        "marker_type": "city",
        "nation": "Hellas"
      }
    },
    {
      "type": "Feature",
      "geometry": {
        "type": "Point",
        "coordinates": [3.2247, 51.2093]
      },
      "properties": {
        "name": "Brugge",
        "marker_type": "city",
        "nation": "Hellas"
      }
    },
    {
      "type": "Feature",
      "geometry": {
        "type": "Point",
        "coordinates": [28.6348, 44.1792]
      },
      "properties": {
        "name": "Tomis",
        "marker_type": "city",
        "nation": "Hellas"
      }
    },
    {
      "type": "Feature",
      "geometry": {
        "type": "Point",
        "coordinates": [26.1025, 44.4323]
      },
      "properties": {
        "name": "Boukourestion",
        "marker_type": "city",
        "nation": "Hellas"
      }
    },
    {
      "type": "Feature",
      "geometry": {
        "type": "Point",
        "coordinates": [23.5916, 46.7712]
      },
      "properties": {
        "name": "Napoca",
        "marker_type": "city",
        "nation": "Hellas"
      }
    },
    {
      "type": "Feature",
      "geometry": {
        "type": "Point",
        "coordinates": [21.2272, 45.7489]
      },
      "properties": {
        "name": "Themeswar",
        "marker_type": "city",
        "nation": "Hellas"
      }
    },
    {
      "type": "Feature",
      "geometry": {
        "type": "Point",
        "coordinates": [18.4131, 43.8563]
      },
      "properties": {
        "name": "Vrhbosna",
        "marker_type": "city",
        "nation": "Hellas"
      }
    },
    {
      "type": "Feature",
      "geometry": {
        "type": "Point",
        "coordinates": [17.8078, 43.3438]
      },
      "properties": {
        "name": "Mostar",
        "marker_type": "city",
        "nation": "Hellas"
      }
    },
    {
      "type": "Feature",
      "geometry": {
        "type": "Point",
        "coordinates": [15.2314, 44.1194]
      },
      "properties": {
        "name": "Iadera",
        "marker_type": "city",
        "nation": "Hellas"
      }
    },
    {
      "type": "Feature",
      "geometry": {
        "type": "Point",
        "coordinates": [15.9819, 45.8150]
      },
      "properties": {
        "name": "Zagrabia",
        "marker_type": "city",
        "nation": "Hellas"
      }
    },
    {
      "type": "Feature",
      "geometry": {
        "type": "Point",
        "coordinates": [14.5058, 46.0569]
      },
      "properties": {
        "name": "Ljubljana",
        "marker_type": "city",
        "nation": "Hellas"
      }
    },
    {
      "type": "Feature",
      "geometry": {
        "type": "Point",
        "coordinates": [19.0402, 47.4979]
      },
      "properties": {
        "name": "Buda-Pest",
        "marker_type": "city",
        "nation": "Hellas"
      }
    },
    {
      "type": "Feature",
      "geometry": {
        "type": "Point",
        "coordinates": [21.6273, 47.5316]
      },
      "properties": {
        "name": "Debrecen",
        "marker_type": "city",
        "nation": "Hellas"
      }
    },
    {
      "type": "Feature",
      "geometry": {
        "type": "Point",
        "coordinates": [16.3738, 48.2082]
      },
      "properties": {
        "name": "Wien",
        "marker_type": "city",
        "nation": "Hellas"
      }
    },
    {
      "type": "Feature",
      "geometry": {
        "type": "Point",
        "coordinates": [15.4383, 47.0707]
      },
      "properties": {
        "name": "Graz",
        "marker_type": "city",
        "nation": "Hellas"
      }
    },
    {
      "type": "Feature",
      "geometry": {
        "type": "Point",
        "coordinates": [17.1067, 48.1486]
      },
      "properties": {
        "name": "Bratislava",
        "marker_type": "city",
        "nation": "Hellas"
      }
    },
    {
      "type": "Feature",
      "geometry": {
        "type": "Point",
        "coordinates": [14.4378, 50.0755]
      },
      "properties": {
        "name": "Praha",
        "marker_type": "city",
        "nation": "Hellas"
      }
    },
    {
      "type": "Feature",
      "geometry": {
        "type": "Point",
        "coordinates": [16.6068, 49.1951]
      },
      "properties": {
        "name": "Brno",
        "marker_type": "city",
        "nation": "Hellas"
      }
    },
    {
      "type": "Feature",
      "geometry": {
        "type": "Point",
        "coordinates": [27.6014, 47.1585]
      },
      "properties": {
        "name": "Iasium",
        "marker_type": "city",
        "nation": "Hellas"
      }
    },
    {
      "type": "Feature",
      "geometry": {
        "type": "Point",
        "coordinates": [25.6012, 45.6580]
      },
      "properties": {
        "name": "Stephanopolis",
        "marker_type": "city",
        "nation": "Hellas"
      }
    },
    {
      "type": "Feature",
      "geometry": {
        "type": "Point",
        "coordinates": [14.4422, 45.3271]
      },
      "properties": {
        "name": "Tarsatica",
        "marker_type": "city",
        "nation": "Hellas"
      }
    },
    {
      "type": "Feature",
      "geometry": {
        "type": "Point",
        "coordinates": [18.6955, 45.5550]
      },
      "properties": {
        "name": "Mursa",
        "marker_type": "city",
        "nation": "Hellas"
      }
    },
    {
      "type": "Feature",
      "geometry": {
        "type": "Point",
        "coordinates": [17.1910, 44.7722]
      },
      "properties": {
        "name": "Bania Louka",
        "marker_type": "city",
        "nation": "Hellas"
      }
    },
    {
      "type": "Feature",
      "geometry": {
        "type": "Point",
        "coordinates": [18.2322, 46.0727]
      },
      "properties": {
        "name": "Sopianae",
        "marker_type": "city",
        "nation": "Hellas"
      }
    },
    {
      "type": "Feature",
      "geometry": {
        "type": "Point",
        "coordinates": [17.6351, 47.6875]
      },
      "properties": {
        "name": "Arrabona",
        "marker_type": "city",
        "nation": "Hellas"
      }
    },
    {
      "type": "Feature",
      "geometry": {
        "type": "Point",
        "coordinates": [15.6467, 46.5547]
      },
      "properties": {
        "name": "Maribor",
        "marker_type": "city",
        "nation": "Hellas"
      }
    },
    {
      "type": "Feature",
      "geometry": {
        "type": "Point",
        "coordinates": [13.0550, 47.8095]
      },
      "properties": {
        "name": "Salzburg",
        "marker_type": "city",
        "nation": "Hellas"
      }
    },
    {
      "type": "Feature",
      "geometry": {
        "type": "Point",
        "coordinates": [14.2858, 48.3069]
      },
      "properties": {
        "name": "Linz",
        "marker_type": "city",
        "nation": "Hellas"
      }
    },
    {
      "type": "Feature",
      "geometry": {
        "type": "Point",
        "coordinates": [21.2611, 48.7164]
      },
      "properties": {
        "name": "Košice",
        "marker_type": "city",
        "nation": "Hellas"
      }
    },
    {
      "type": "Feature",
      "geometry": {
        "type": "Point",
        "coordinates": [18.2820, 49.8209]
      },
      "properties": {
        "name": "Ostrava",
        "marker_type": "city",
        "nation": "Hellas"
      }
    },
    {
      "type": "Feature",
      "geometry": {
        "type": "Point",
        "coordinates": [13.3736, 49.7437]
      },
      "properties": {
        "name": "Plzeň",
        "marker_type": "city",
        "nation": "Hellas"
      }
    },
    {
      "type": "Feature",
      "geometry": {
        "type": "Point",
        "coordinates": [68.1353, 27.3292]
      },
      "properties": {
        "name": "Mohenjo-daro",
        "marker_type": "city",
        "nation": "Arya"
      }
    },
    {
      "type": "Feature",
      "geometry": {
        "type": "Point",
        "coordinates": [72.5714, 23.0225]
      },
      "properties": {
        "name": "Amdavad",
        "marker_type": "city",
        "nation": "Arya"
      }
    },
    {
      "type": "Feature",
      "geometry": {
        "type": "Point",
        "coordinates": [72.1257, 23.8493]
      },
      "properties": {
        "name": "Patan",
        "marker_type": "city",
        "nation": "Arya"
      }
    },
    {
      "type": "Feature",
      "geometry": {
        "type": "Point",
        "coordinates": [72.6369, 23.2156]
      },
      "properties": {
        "name": "Gandhinagar",
        "marker_type": "city",
        "nation": "Arya"
      }
    },
    {
      "type": "Feature",
      "geometry": {
        "type": "Point",
        "coordinates": [67.9235, 24.7474]
      },
      "properties": {
        "name": "Thatta",
        "marker_type": "city",
        "nation": "Arya"
      }
    },
    {
      "type": "Feature",
      "geometry": {
        "type": "Point",
        "coordinates": [68.3578, 25.3960]
      },
      "properties": {
        "name": "Hyderabad",
        "marker_type": "city",
        "nation": "Arya"
      }
    },
    {
      "type": "Feature",
      "geometry": {
        "type": "Point",
        "coordinates": [68.7592, 27.5295]
      },
      "properties": {
        "name": "Khairpur",
        "marker_type": "city",
        "nation": "Arya"
      }
    },
    {
      "type": "Feature",
      "geometry": {
        "type": "Point",
        "coordinates": [62.3254, 25.1216]
      },
      "properties": {
        "name": "Gwadar",
        "marker_type": "city",
        "nation": "Arya"
      }
    },
    {
      "type": "Feature",
      "geometry": {
        "type": "Point",
        "coordinates": [74.3587, 31.5204]
      },
      "properties": {
        "name": "Lahore",
        "marker_type": "city",
        "nation": "Arya"
      }
    },
    {
      "type": "Feature",
      "geometry": {
        "type": "Point",
        "coordinates": [73.1350, 31.4504]
      },
      "properties": {
        "name": "Faisalabad",
        "marker_type": "city",
        "nation": "Arya"
      }
    },
    {
      "type": "Feature",
      "geometry": {
        "type": "Point",
        "coordinates": [71.5249, 30.1575]
      },
      "properties": {
        "name": "Multan",
        "marker_type": "city",
        "nation": "Arya"
      }
    },
    {
      "type": "Feature",
      "geometry": {
        "type": "Point",
        "coordinates": [71.5249, 34.0151]
      },
      "properties": {
        "name": "Peshawar",
        "marker_type": "city",
        "nation": "Arya"
      }
    },
    {
      "type": "Feature",
      "geometry": {
        "type": "Point",
        "coordinates": [73.0160, 33.5651]
      },
      "properties": {
        "name": "Rawalpindi",
        "marker_type": "city",
        "nation": "Arya"
      }
    },
    {
      "type": "Feature",
      "geometry": {
        "type": "Point",
        "coordinates": [72.6711, 32.0836]
      },
      "properties": {
        "name": "Sargodha",
        "marker_type": "city",
        "nation": "Arya"
      }
    },
    {
      "type": "Feature",
      "geometry": {
        "type": "Point",
        "coordinates": [73.0479, 33.6844]
      },
      "properties": {
        "name": "Gandhara",
        "marker_type": "city",
        "nation": "Arya"
      }
    },
    {
      "type": "Feature",
      "geometry": {
        "type": "Point",
        "coordinates": [68.8228, 27.7244]
      },
      "properties": {
        "name": "Sukkur",
        "marker_type": "city",
        "nation": "Arya"
      }
    },
    {
      "type": "Feature",
      "geometry": {
        "type": "Point",
        "coordinates": [72.3556, 34.7494]
      },
      "properties": {
        "name": "Saidu",
        "marker_type": "city",
        "nation": "Arya"
      }
    },
    {
      "type": "Feature",
      "geometry": {
        "type": "Point",
        "coordinates": [66.9750, 30.1798]
      },
      "properties": {
        "name": "Quetta",
        "marker_type": "city",
        "nation": "Arya"
      }
    },
    {
      "type": "Feature",
      "geometry": {
        "type": "Point",
        "coordinates": [74.7973, 34.0837]
      },
      "properties": {
        "name": "Srinagar",
        "marker_type": "city",
        "nation": "Arya"
      }
    },
    {
      "type": "Feature",
      "geometry": {
        "type": "Point",
        "coordinates": [74.8570, 32.7266]
      },
      "properties": {
        "name": "Jammu",
        "marker_type": "city",
        "nation": "Arya"
      }
    },
    {
      "type": "Feature",
      "geometry": {
        "type": "Point",
        "coordinates": [74.8723, 31.6340]
      },
      "properties": {
        "name": "Amritsa",
        "marker_type": "city",
        "nation": "Arya"
      }
    },
    {
      "type": "Feature",
      "geometry": {
        "type": "Point",
        "coordinates": [76.7794, 30.7333]
      },
      "properties": {
        "name": "Chandigarh",
        "marker_type": "city",
        "nation": "Arya"
      }
    },
    {
      "type": "Feature",
      "geometry": {
        "type": "Point",
        "coordinates": [78.0322, 30.3165]
      },
      "properties": {
        "name": "Dehradun",
        "marker_type": "city",
        "nation": "Arya"
      }
    },
    {
      "type": "Feature",
      "geometry": {
        "type": "Point",
        "coordinates": [73.3119, 28.0229]
      },
      "properties": {
        "name": "Bikaner",
        "marker_type": "city",
        "nation": "Arya"
      }
    },
    {
      "type": "Feature",
      "geometry": {
        "type": "Point",
        "coordinates": [73.0243, 26.2389]
      },
      "properties": {
        "name": "Jodhpur",
        "marker_type": "city",
        "nation": "Arya"
      }
    },
    {
      "type": "Feature",
      "geometry": {
        "type": "Point",
        "coordinates": [69.6669, 23.2420]
      },
      "properties": {
        "name": "Bhuj",
        "marker_type": "city",
        "nation": "Arya"
      }
    },
    {
      "type": "Feature",
      "geometry": {
        "type": "Point",
        "coordinates": [70.8022, 22.3039]
      },
      "properties": {
        "name": "Rajkot",
        "marker_type": "city",
        "nation": "Arya"
      }
    },
    {
      "type": "Feature",
      "geometry": {
        "type": "Point",
        "coordinates": [73.1812, 22.3072]
      },
      "properties": {
        "name": "Vadodara",
        "marker_type": "city",
        "nation": "Arya"
      }
    },
    {
      "type": "Feature",
      "geometry": {
        "type": "Point",
        "coordinates": [72.8311, 21.1702]
      },
      "properties": {
        "name": "Surat",
        "marker_type": "city",
        "nation": "Arya"
      }
    },
    {
      "type": "Feature",
      "geometry": {
        "type": "Point",
        "coordinates": [72.8777, 19.0760]
      },
      "properties": {
        "name": "Mumbai",
        "marker_type": "city",
        "nation": "Arya"
      }
    },
    {
      "type": "Feature",
      "geometry": {
        "type": "Point",
        "coordinates": [73.8567, 18.5204]
      },
      "properties": {
        "name": "Pune",
        "marker_type": "city",
        "nation": "Arya"
      }
    },
    {
      "type": "Feature",
      "geometry": {
        "type": "Point",
        "coordinates": [73.7898, 19.9975]
      },
      "properties": {
        "name": "Nasik",
        "marker_type": "city",
        "nation": "Arya"
      }
    },
    {
      "type": "Feature",
      "geometry": {
        "type": "Point",
        "coordinates": [75.8577, 22.7196]
      },
      "properties": {
        "name": "Indore",
        "marker_type": "city",
        "nation": "Arya"
      }
    },
    {
      "type": "Feature",
      "geometry": {
        "type": "Point",
        "coordinates": [79.0882, 21.1458]
      },
      "properties": {
        "name": "Nagpur",
        "marker_type": "city",
        "nation": "Arya"
      }
    },
    {
      "type": "Feature",
      "geometry": {
        "type": "Point",
        "coordinates": [75.7873, 26.9124]
      },
      "properties": {
        "name": "Jaipur",
        "marker_type": "city",
        "nation": "Arya"
      }
    },
    {
      "type": "Feature",
      "geometry": {
        "type": "Point",
        "coordinates": [77.2090, 28.6139]
      },
      "properties": {
        "name": "Delhi",
        "marker_type": "city",
        "nation": "Arya"
      }
    },
    {
      "type": "Feature",
      "geometry": {
        "type": "Point",
        "coordinates": [78.1784, 26.2183]
      },
      "properties": {
        "name": "Gwalior",
        "marker_type": "city",
        "nation": "Arya"
      }
    },
    {
      "type": "Feature",
      "geometry": {
        "type": "Point",
        "coordinates": [78.5685, 25.4484]
      },
      "properties": {
        "name": "Jhansi",
        "marker_type": "city",
        "nation": "Arya"
      }
    },
    {
      "type": "Feature",
      "geometry": {
        "type": "Point",
        "coordinates": [80.9462, 26.8467]
      },
      "properties": {
        "name": "Lucknow",
        "marker_type": "city",
        "nation": "Arya"
      }
    },
    {
      "type": "Feature",
      "geometry": {
        "type": "Point",
        "coordinates": [79.5818, 24.9161]
      },
      "properties": {
        "name": "Chhatarpur",
        "marker_type": "city",
        "nation": "Arya"
      }
    },
    {
      "type": "Feature",
      "geometry": {
        "type": "Point",
        "coordinates": [81.8463, 25.4358]
      },
      "properties": {
        "name": "Allahabad",
        "marker_type": "city",
        "nation": "Arya"
      }
    },
    {
      "type": "Feature",
      "geometry": {
        "type": "Point",
        "coordinates": [85.1376, 25.5941]
      },
      "properties": {
        "name": "Patna",
        "marker_type": "city",
        "nation": "Arya"
      }
    },
    {
      "type": "Feature",
      "geometry": {
        "type": "Point",
        "coordinates": [86.4304, 23.7957]
      },
      "properties": {
        "name": "Dhanba",
        "marker_type": "city",
        "nation": "Arya"
      }
    },
    {
      "type": "Feature",
      "geometry": {
        "type": "Point",
        "coordinates": [85.3094, 23.3441]
      },
      "properties": {
        "name": "Ranchi",
        "marker_type": "city",
        "nation": "Arya"
      }
    },
    {
      "type": "Feature",
      "geometry": {
        "type": "Point",
        "coordinates": [86.2029, 22.8046]
      },
      "properties": {
        "name": "Jamshedpur",
        "marker_type": "city",
        "nation": "Arya"
      }
    },
    {
      "type": "Feature",
      "geometry": {
        "type": "Point",
        "coordinates": [88.3639, 22.5726]
      },
      "properties": {
        "name": "Kolkata",
        "marker_type": "city",
        "nation": "Arya"
      }
    },
    {
      "type": "Feature",
      "geometry": {
        "type": "Point",
        "coordinates": [81.6296, 21.2514]
      },
      "properties": {
        "name": "Raipur",
        "marker_type": "city",
        "nation": "Arya"
      }
    },
    {
      "type": "Feature",
      "geometry": {
        "type": "Point",
        "coordinates": [85.8245, 20.2961]
      },
      "properties": {
        "name": "Bhubaneshwar",
        "marker_type": "city",
        "nation": "Arya"
      }
    },
    {
      "type": "Feature",
      "geometry": {
        "type": "Point",
        "coordinates": [88.6140, 27.3325]
      },
      "properties": {
        "name": "Gangtok",
        "marker_type": "city",
        "nation": "Arya"
      }
    },
    {
      "type": "Feature",
      "geometry": {
        "type": "Point",
        "coordinates": [93.6053, 27.0844]
      },
      "properties": {
        "name": "Itanagar",
        "marker_type": "city",
        "nation": "Arya"
      }
    },
    {
      "type": "Feature",
      "geometry": {
        "type": "Point",
        "coordinates": [94.9200, 27.4700]
      },
      "properties": {
        "name": "Dibrugarh",
        "marker_type": "city",
        "nation": "Arya"
      }
    },
    {
      "type": "Feature",
      "geometry": {
        "type": "Point",
        "coordinates": [91.7362, 26.1445]
      },
      "properties": {
        "name": "Guwahati",
        "marker_type": "city",
        "nation": "Arya"
      }
    },
    {
      "type": "Feature",
      "geometry": {
        "type": "Point",
        "coordinates": [91.8833, 25.5788]
      },
      "properties": {
        "name": "Shillong",
        "marker_type": "city",
        "nation": "Arya"
      }
    },
    {
      "type": "Feature",
      "geometry": {
        "type": "Point",
        "coordinates": [94.1086, 25.6751]
      },
      "properties": {
        "name": "Kohima",
        "marker_type": "city",
        "nation": "Arya"
      }
    },
    {
      "type": "Feature",
      "geometry": {
        "type": "Point",
        "coordinates": [93.9368, 24.8170]
      },
      "properties": {
        "name": "Imphal",
        "marker_type": "city",
        "nation": "Arya"
      }
    },
    {
      "type": "Feature",
      "geometry": {
        "type": "Point",
        "coordinates": [91.2868, 23.8315]
      },
      "properties": {
        "name": "Agartala",
        "marker_type": "city",
        "nation": "Arya"
      }
    },
    {
      "type": "Feature",
      "geometry": {
        "type": "Point",
        "coordinates": [92.7176, 23.7307]
      },
      "properties": {
        "name": "Aizawl",
        "marker_type": "city",
        "nation": "Arya"
      }
    },
    {
      "type": "Feature",
      "geometry": {
        "type": "Point",
        "coordinates": [90.4005, 23.8818]
      },
      "properties": {
        "name": "Tungi",
        "marker_type": "city",
        "nation": "Arya"
      }
    },
    {
      "type": "Feature",
      "geometry": {
        "type": "Point",
        "coordinates": [90.5015, 23.6238]
      },
      "properties": {
        "name": "Nārāyanganj",
        "marker_type": "city",
        "nation": "Arya"
      }
    },
    {
      "type": "Feature",
      "geometry": {
        "type": "Point",
        "coordinates": [89.2508, 25.7439]
      },
      "properties": {
        "name": "Rangpur",
        "marker_type": "city",
        "nation": "Arya"
      }
    },
    {
      "type": "Feature",
      "geometry": {
        "type": "Point",
        "coordinates": [90.4047, 24.7471]
      },
      "properties": {
        "name": "Mymensingh",
        "marker_type": "city",
        "nation": "Arya"
      }
    },
    {
      "type": "Feature",
      "geometry": {
        "type": "Point",
        "coordinates": [91.8687, 24.8949]
      },
      "properties": {
        "name": "Sylhet",
        "marker_type": "city",
        "nation": "Arya"
      }
    },
    {
      "type": "Feature",
      "geometry": {
        "type": "Point",
        "coordinates": [91.1728, 23.4607]
      },
      "properties": {
        "name": "Comilla",
        "marker_type": "city",
        "nation": "Arya"
      }
    },
    {
      "type": "Feature",
      "geometry": {
        "type": "Point",
        "coordinates": [91.7832, 22.3569]
      },
      "properties": {
        "name": "Chittagong",
        "marker_type": "city",
        "nation": "Arya"
      }
    },
    {
      "type": "Feature",
      "geometry": {
        "type": "Point",
        "coordinates": [91.9732, 21.4272]
      },
      "properties": {
        "name": "Cox's Bāzār",
        "marker_type": "city",
        "nation": "Arya"
      }
    },
    {
      "type": "Feature",
      "geometry": {
        "type": "Point",
        "coordinates": [90.3501, 22.7010]
      },
      "properties": {
        "name": "Barisāl",
        "marker_type": "city",
        "nation": "Arya"
      }
    },
    {
      "type": "Feature",
      "geometry": {
        "type": "Point",
        "coordinates": [88.6041, 24.3745]
      },
      "properties": {
        "name": "Rājshāhi",
        "marker_type": "city",
        "nation": "Arya"
      }
    },
    {
      "type": "Feature",
      "geometry": {
        "type": "Point",
        "coordinates": [89.2137, 23.1697]
      },
      "properties": {
        "name": "Jessore",
        "marker_type": "city",
        "nation": "Arya"
      }
    },
    {
      "type": "Feature",
      "geometry": {
        "type": "Point",
        "coordinates": [89.5403, 22.8456]
      },
      "properties": {
        "name": "Khulna",
        "marker_type": "city",
        "nation": "Arya"
      }
    },
    {
      "type": "Feature",
      "geometry": {
        "type": "Point",
        "coordinates": [89.5905, 22.5003]
      },
      "properties": {
        "name": "Mongla",
        "marker_type": "city",
        "nation": "Arya"
      }
    },
    {
      "type": "Feature",
      "geometry": {
        "type": "Point",
        "coordinates": [74.5089, 15.8497]
      },
      "properties": {
        "name": "Belgaum",
        "marker_type": "city",
        "nation": "Arya"
      }
    },
    {
      "type": "Feature",
      "geometry": {
        "type": "Point",
        "coordinates": [75.5681, 13.9299]
      },
      "properties": {
        "name": "Shimoga",
        "marker_type": "city",
        "nation": "Arya"
      }
    },
    {
      "type": "Feature",
      "geometry": {
        "type": "Point",
        "coordinates": [74.8560, 12.9141]
      },
      "properties": {
        "name": "Mangalore",
        "marker_type": "city",
        "nation": "Arya"
      }
    },
    {
      "type": "Feature",
      "geometry": {
        "type": "Point",
        "coordinates": [75.7804, 11.2588]
      },
      "properties": {
        "name": "Calicut",
        "marker_type": "city",
        "nation": "Arya"
      }
    },
    {
      "type": "Feature",
      "geometry": {
        "type": "Point",
        "coordinates": [76.2673, 9.9312]
      },
      "properties": {
        "name": "Kochi",
        "marker_type": "city",
        "nation": "Arya"
      }
    },
    {
      "type": "Feature",
      "geometry": {
        "type": "Point",
        "coordinates": [75.9064, 17.6599]
      },
      "properties": {
        "name": "Sholapur",
        "marker_type": "city",
        "nation": "Arya"
      }
    },
    {
      "type": "Feature",
      "geometry": {
        "type": "Point",
        "coordinates": [78.4867, 17.3850]
      },
      "properties": {
        "name": "Hyderabad",
        "marker_type": "city",
        "nation": "Arya"
      }
    },
    {
      "type": "Feature",
      "geometry": {
        "type": "Point",
        "coordinates": [77.5946, 12.9716]
      },
      "properties": {
        "name": "Bangalore",
        "marker_type": "city",
        "nation": "Arya"
      }
    },
    {
      "type": "Feature",
      "geometry": {
        "type": "Point",
        "coordinates": [79.1324, 12.9165]
      },
      "properties": {
        "name": "Vellore",
        "marker_type": "city",
        "nation": "Arya"
      }
    },
    {
      "type": "Feature",
      "geometry": {
        "type": "Point",
        "coordinates": [76.6394, 12.2958]
      },
      "properties": {
        "name": "Mysore",
        "marker_type": "city",
        "nation": "Arya"
      }
    },
    {
      "type": "Feature",
      "geometry": {
        "type": "Point",
        "coordinates": [76.9558, 11.0168]
      },
      "properties": {
        "name": "Coimbatore",
        "marker_type": "city",
        "nation": "Arya"
      }
    },
    {
      "type": "Feature",
      "geometry": {
        "type": "Point",
        "coordinates": [78.1198, 9.9252]
      },
      "properties": {
        "name": "Madurai",
        "marker_type": "city",
        "nation": "Arya"
      }
    },
    {
      "type": "Feature",
      "geometry": {
        "type": "Point",
        "coordinates": [83.2185, 17.6868]
      },
      "properties": {
        "name": "Vishakhapatnam",
        "marker_type": "city",
        "nation": "Arya"
      }
    },
    {
      "type": "Feature",
      "geometry": {
        "type": "Point",
        "coordinates": [80.6480, 16.5062]
      },
      "properties": {
        "name": "Vijayawada",
        "marker_type": "city",
        "nation": "Arya"
      }
    },
    {
      "type": "Feature",
      "geometry": {
        "type": "Point",
        "coordinates": [80.2707, 13.0827]
      },
      "properties": {
        "name": "Chennai",
        "marker_type": "city",
        "nation": "Arya"
      }
    },
    {
      "type": "Feature",
      "geometry": {
        "type": "Point",
        "coordinates": [91.1172, 29.6524]
      },
      "properties": {
        "name": "Lhasa",
        "marker_type": "city",
        "nation": "Tibet"
      }
    },
    {
      "type": "Feature",
      "geometry": {
        "type": "Point",
        "coordinates": [88.8813, 29.2672]
      },
      "properties": {
        "name": "Xigazē",
        "marker_type": "city",
        "nation": "Tibet"
      }
    },
    {
      "type": "Feature",
      "geometry": {
        "type": "Point",
        "coordinates": [94.3616, 29.6548]
      },
      "properties": {
        "name": "Nyingchi",
        "marker_type": "city",
        "nation": "Tibet"
      }
    },
    {
      "type": "Feature",
      "geometry": {
        "type": "Point",
        "coordinates": [91.7667, 29.2333]
      },
      "properties": {
        "name": "Shannan",
        "marker_type": "city",
        "nation": "Tibet"
      }
    },
    {
      "type": "Feature",
      "geometry": {
        "type": "Point",
        "coordinates": [97.1784, 31.1369]
      },
      "properties": {
        "name": "Qamdo",
        "marker_type": "city",
        "nation": "Tibet"
      }
    },
    {
      "type": "Feature",
      "geometry": {
        "type": "Point",
        "coordinates": [92.0602, 31.4763]
      },
      "properties": {
        "name": "Nagqu",
        "marker_type": "city",
        "nation": "Tibet"
      }
    },
    {
      "type": "Feature",
      "geometry": {
        "type": "Point",
        "coordinates": [46.6753, 24.7136]
      },
      "properties": {
        "name": "Riyadh",
        "marker_type": "city",
        "nation": "Arya"
      }
    },
    {
      "type": "Feature",
      "geometry": {
        "type": "Point",
        "coordinates": [39.1728, 21.5433]
      },
      "properties": {
        "name": "Jeddah",
        "marker_type": "city",
        "nation": "Arya"
      }
    },
    {
      "type": "Feature",
      "geometry": {
        "type": "Point",
        "coordinates": [55.2708, 25.2048]
      },
      "properties": {
        "name": "Dubai",
        "marker_type": "city",
        "nation": "Arya"
      }
    },
    {
      "type": "Feature",
      "geometry": {
        "type": "Point",
        "coordinates": [54.3773, 24.4539]
      },
      "properties": {
        "name": "Abu Dhabi",
        "marker_type": "city",
        "nation": "Arya"
      }
    },
    {
      "type": "Feature",
      "geometry": {
        "type": "Point",
        "coordinates": [50.0888, 26.4207]
      },
      "properties": {
        "name": "Dammam",
        "marker_type": "city",
        "nation": "Arya"
      }
    },
    {
      "type": "Feature",
      "geometry": {
        "type": "Point",
        "coordinates": [39.6122, 24.4672]
      },
      "properties": {
        "name": "Medina",
        "marker_type": "city",
        "nation": "Arya"
      }
    },
    {
      "type": "Feature",
      "geometry": {
        "type": "Point",
        "coordinates": [51.5310, 25.2854]
      },
      "properties": {
        "name": "Doha",
        "marker_type": "city",
        "nation": "Arya"
      }
    },
    {
      "type": "Feature",
      "geometry": {
        "type": "Point",
        "coordinates": [44.2075, 15.3694]
      },
      "properties": {
        "name": "Sana'a",
        "marker_type": "city",
        "nation": "Arya"
      }
    },
    {
      "type": "Feature",
      "geometry": {
        "type": "Point",
        "coordinates": [55.4121, 25.3463]
      },
      "properties": {
        "name": "Sharjah",
        "marker_type": "city",
        "nation": "Arya"
      }
    },
    {
      "type": "Feature",
      "geometry": {
        "type": "Point",
        "coordinates": [45.0186, 12.7855]
      },
      "properties": {
        "name": "Aden",
        "marker_type": "city",
        "nation": "Arya"
      }
    },
    {
      "type": "Feature",
      "geometry": {
        "type": "Point",
        "coordinates": [47.9783, 29.3759]
      },
      "properties": {
        "name": "Kuwait",
        "marker_type": "city",
        "nation": "Arya"
      }
    },
    {
      "type": "Feature",
      "geometry": {
        "type": "Point",
        "coordinates": [44.0206, 13.5794]
      },
      "properties": {
        "name": "Ta'izz",
        "marker_type": "city",
        "nation": "Arya"
      }
    },
    {
      "type": "Feature",
      "geometry": {
        "type": "Point",
        "coordinates": [40.4158, 21.2808]
      },
      "properties": {
        "name": "Taif",
        "marker_type": "city",
        "nation": "Arya"
      }
    },
    {
      "type": "Feature",
      "geometry": {
        "type": "Point",
        "coordinates": [42.5053, 18.2164]
      },
      "properties": {
        "name": "Abha",
        "marker_type": "city",
        "nation": "Arya"
      }
    },
    {
      "type": "Feature",
      "geometry": {
        "type": "Point",
        "coordinates": [42.5511, 16.8892]
      },
      "properties": {
        "name": "Jizan",
        "marker_type": "city",
        "nation": "Arya"
      }
    },
    {
      "type": "Feature",
      "geometry": {
        "type": "Point",
        "coordinates": [36.5681, 28.3835]
      },
      "properties": {
        "name": "Tabuk",
        "marker_type": "city",
        "nation": "Arya"
      }
    },
    {
      "type": "Feature",
      "geometry": {
        "type": "Point",
        "coordinates": [49.6583, 27.0111]
      },
      "properties": {
        "name": "Jubail",
        "marker_type": "city",
        "nation": "Arya"
      }
    },
    {
      "type": "Feature",
      "geometry": {
        "type": "Point",
        "coordinates": [50.5860, 26.2285]
      },
      "properties": {
        "name": "Manama",
        "marker_type": "city",
        "nation": "Arya"
      }
    },
    {
      "type": "Feature",
      "geometry": {
        "type": "Point",
        "coordinates": [58.4059, 23.5859]
      },
      "properties": {
        "name": "Muscat",
        "marker_type": "city",
        "nation": "Arya"
      }
    },
    {
      "type": "Feature",
      "geometry": {
        "type": "Point",
        "coordinates": [43.9747, 26.3260]
      },
      "properties": {
        "name": "Buraidah",
        "marker_type": "city",
        "nation": "Arya"
      }
    },
    {
      "type": "Feature",
      "geometry": {
        "type": "Point",
        "coordinates": [41.6961, 27.5219]
      },
      "properties": {
        "name": "Hail",
        "marker_type": "city",
        "nation": "Arya"
      }
    },
    {
      "type": "Feature",
      "geometry": {
        "type": "Point",
        "coordinates": [40.2064, 29.9697]
      },
      "properties": {
        "name": "Sakakah",
        "marker_type": "city",
        "nation": "Arya"
      }
    },
    {
      "type": "Feature",
      "geometry": {
        "type": "Point",
        "coordinates": [54.0924, 17.0151]
      },
      "properties": {
        "name": "Salalah",
        "marker_type": "city",
        "nation": "Arya"
      }
    },
    {
      "type": "Feature",
      "geometry": {
        "type": "Point",
        "coordinates": [56.7468, 24.3461]
      },
      "properties": {
        "name": "Sohar",
        "marker_type": "city",
        "nation": "Arya"
      }
    },
    {
      "type": "Feature",
      "geometry": {
        "type": "Point",
        "coordinates": [49.1242, 14.5425]
      },
      "properties": {
        "name": "Mukalla",
        "marker_type": "city",
        "nation": "Arya"
      }
    }
  ]
}
