{
  "type": "FeatureCollection",
  "features": [
    {
      "type": "Feature",
      "geometry": {
        "type": "Point",
        "coordinates": [
          28.9737479,
          41.0091879
        ]
      },
      "properties": {
        "name": "Constantinople",
        "marker_type": "capital",
        "nation": "Hellas"
      }
    },
    {
      "type": "Feature",
      "geometry": {
        "type": "Point",
        "coordinates": [
          68.8667388,
          36.7180523
        ]
      },
      "properties": {
        "name": "Drapsaka-Kunduz",
        "marker_type": "city",
        "nation": "Arya"
      }
    },
    {
      "type": "Feature",
      "geometry": {
        "type": "Point",
        "coordinates": [
          61.832584,
          37.5994985
        ]
      },
      "properties": {
        "name": "Merv",
        "marker_type": "city",
        "nation": "Arya"
      }
    },
    {
      "type": "Feature",
      "geometry": {
        "type": "Point",
        "coordinates": [
          66.9779799,
          39.6629797
        ]
      },
      "properties": {
        "name": "Samarqand",
        "marker_type": "city",
        "nation": "Arya"
      }
    },
    {
      "type": "Feature",
      "geometry": {
        "type": "Point",
        "coordinates": [
          64.4182607,
          39.7684352
        ]
      },
      "properties": {
        "name": "Bukhara",
        "marker_type": "city",
        "nation": "Arya"
      }
    },
    {
      "type": "Feature",
      "geometry": {
        "type": "Point",
        "coordinates": [
          34.2522472,
          31.2748986
        ]
      },
      "properties": {
        "name": "Raphia",
        "marker_type": "city",
        "nation": "Arya"
      }
    },
    {
      "type": "Feature",
      "geometry": {
        "type": "Point",
        "coordinates": [
          34.4539936,
          31.5159126
        ]
      },
      "properties": {
        "name": "Gaza",
        "marker_type": "city",
        "nation": "Arya"
      }
    },
    {
      "type": "Feature",
      "geometry": {
        "type": "Point",
        "coordinates": [
          43.6770018,
          34.6159894
        ]
      },
      "properties": {
        "name": "Perozhormizd",
        "marker_type": "city",
        "nation": "Arya"
      }
    },
    {
      "type": "Feature",
      "geometry": {
        "type": "Point",
        "coordinates": [
          34.5635952,
          31.6686048
        ]
      },
      "properties": {
        "name": "Ascalum",
        "marker_type": "city",
        "nation": "Arya"
      }
    },
    {
      "type": "Feature",
      "geometry": {
        "type": "Point",
        "coordinates": [
          35.2197313,
          31.7773373
        ]
      },
      "properties": {
        "name": "Jerusalem",
        "marker_type": "city",
        "nation": "Arya"
      }
    },
    {
      "type": "Feature",
      "geometry": {
        "type": "Point",
        "coordinates": [
          34.781192,
          32.0868418
        ]
      },
      "properties": {
        "name": "Jaffa",
        "marker_type": "city",
        "nation": "Arya"
      }
    },
    {
      "type": "Feature",
      "geometry": {
        "type": "Point",
        "coordinates": [
          35.3042847,
          32.7072172
        ]
      },
      "properties": {
        "name": "Nazareth",
        "marker_type": "city",
        "nation": "Arya"
      }
    },
    {
      "type": "Feature",
      "geometry": {
        "type": "Point",
        "coordinates": [
          35.0292801,
          32.8030393
        ]
      },
      "properties": {
        "name": "Haifa",
        "marker_type": "city",
        "nation": "Arya"
      }
    },
    {
      "type": "Feature",
      "geometry": {
        "type": "Point",
        "coordinates": [
          35.1947564,
          33.2706431
        ]
      },
      "properties": {
        "name": "Tyros",
        "marker_type": "city",
        "nation": "Arya"
      }
    },
    {
      "type": "Feature",
      "geometry": {
        "type": "Point",
        "coordinates": [
          35.3698643,
          33.5573094
        ]
      },
      "properties": {
        "name": "Sidon",
        "marker_type": "city",
        "nation": "Arya"
      }
    },
    {
      "type": "Feature",
      "geometry": {
        "type": "Point",
        "coordinates": [
          35.8260979,
          34.4401073
        ]
      },
      "properties": {
        "name": "Tripoli-Perozcyrus",
        "marker_type": "city",
        "nation": "Arya"
      }
    },
    {
      "type": "Feature",
      "geometry": {
        "type": "Point",
        "coordinates": [
          35.6508955,
          34.1267511
        ]
      },
      "properties": {
        "name": "Byblos",
        "marker_type": "city",
        "nation": "Arya"
      }
    },
    {
      "type": "Feature",
      "geometry": {
        "type": "Point",
        "coordinates": [
          35.4854024,
          33.894218
        ]
      },
      "properties": {
        "name": "Beirut",
        "marker_type": "city",
        "nation": "Arya"
      }
    },
    {
      "type": "Feature",
      "geometry": {
        "type": "Point",
        "coordinates": [
          36.7145883,
          34.722895
        ]
      },
      "properties": {
        "name": "Emesa",
        "marker_type": "city",
        "nation": "Arya"
      }
    },
    {
      "type": "Feature",
      "geometry": {
        "type": "Point",
        "coordinates": [
          36.7518349,
          35.1345781
        ]
      },
      "properties": {
        "name": "Epiphaneia",
        "marker_type": "city",
        "nation": "Arya"
      }
    },
    {
      "type": "Feature",
      "geometry": {
        "type": "Point",
        "coordinates": [
          36.3035825,
          33.5086098
        ]
      },
      "properties": {
        "name": "Damascus",
        "marker_type": "city",
        "nation": "Arya"
      }
    },
    {
      "type": "Feature",
      "geometry": {
        "type": "Point",
        "coordinates": [
          37.1581471,
          36.1983222
        ]
      },
      "properties": {
        "name": "Aleppo",
        "marker_type": "city",
        "nation": "Arya"
      }
    },
    {
      "type": "Feature",
      "geometry": {
        "type": "Point",
        "coordinates": [
          41.8591864,
          36.318513
        ]
      },
      "properties": {
        "name": "Shengal",
        "marker_type": "city",
        "nation": "Arya"
      }
    },
    {
      "type": "Feature",
      "geometry": {
        "type": "Point",
        "coordinates": [
          65.7243076,
          31.6050581
        ]
      },
      "properties": {
        "name": "Cyrus-Mundigak",
        "marker_type": "city",
        "nation": "Arya"
      }
    },
    {
      "type": "Feature",
      "geometry": {
        "type": "Point",
        "coordinates": [
          69.1282784,
          34.5394097
        ]
      },
      "properties": {
        "name": "Kabul",
        "marker_type": "city",
        "nation": "Arya"
      }
    },
    {
      "type": "Feature",
      "geometry": {
        "type": "Point",
        "coordinates": [
          62.234461,
          34.3596676
        ]
      },
      "properties": {
        "name": "Artacoana-Areiana",
        "marker_type": "city",
        "nation": "Arya"
      }
    },
    {
      "type": "Feature",
      "geometry": {
        "type": "Point",
        "coordinates": [
          67.558627,
          24.5515382
        ]
      },
      "properties": {
        "name": "Krokala",
        "marker_type": "capital",
        "nation": "Arya"
      }
    },
    {
      "type": "Feature",
      "geometry": {
        "type": "Point",
        "coordinates": [
          53.0382542,
          36.5483438
        ]
      },
      "properties": {
        "name": "Zadrakarta",
        "marker_type": "city",
        "nation": "Arya"
      }
    },
    {
      "type": "Feature",
      "geometry": {
        "type": "Point",
        "coordinates": [
          58.2720081,
          37.9901993
        ]
      },
      "properties": {
        "name": "Nisa",
        "marker_type": "city",
        "nation": "Arya"
      }
    },
    {
      "type": "Feature",
      "geometry": {
        "type": "Point",
        "coordinates": [
          59.5844092,
          36.2981928
        ]
      },
      "properties": {
        "name": "Tus-Mashhad",
        "marker_type": "city",
        "nation": "Arya"
      }
    },
    {
      "type": "Feature",
      "geometry": {
        "type": "Point",
        "coordinates": [
          46.2860658,
          38.0726243
        ]
      },
      "properties": {
        "name": "Tabriz",
        "marker_type": "city",
        "nation": "Arya"
      }
    },
    {
      "type": "Feature",
      "geometry": {
        "type": "Point",
        "coordinates": [
          51.3735395,
          35.717198
        ]
      },
      "properties": {
        "name": "Tehran",
        "marker_type": "city",
        "nation": "Arya"
      }
    },
    {
      "type": "Feature",
      "geometry": {
        "type": "Point",
        "coordinates": [
          56.3030209,
          27.1910487
        ]
      },
      "properties": {
        "name": "Hormoz",
        "marker_type": "city",
        "nation": "Arya"
      }
    },
    {
      "type": "Feature",
      "geometry": {
        "type": "Point",
        "coordinates": [
          52.5458483,
          29.5887016
        ]
      },
      "properties": {
        "name": "Shiraz",
        "marker_type": "city",
        "nation": "Arya"
      }
    },
    {
      "type": "Feature",
      "geometry": {
        "type": "Point",
        "coordinates": [
          47.8037084,
          30.4968479
        ]
      },
      "properties": {
        "name": "Basra",
        "marker_type": "city",
        "nation": "Arya"
      }
    },
    {
      "type": "Feature",
      "geometry": {
        "type": "Point",
        "coordinates": [
          42.8594657,
          35.9040455
        ]
      },
      "properties": {
        "name": "Hatra",
        "marker_type": "city",
        "nation": "Arya"
      }
    },
    {
      "type": "Feature",
      "geometry": {
        "type": "Point",
        "coordinates": [
          44.0201557,
          36.1941386
        ]
      },
      "properties": {
        "name": "Arbela",
        "marker_type": "city",
        "nation": "Arya"
      }
    },
    {
      "type": "Feature",
      "geometry": {
        "type": "Point",
        "coordinates": [
          43.1088865,
          36.3356993
        ]
      },
      "properties": {
        "name": "Mosul-Nineveh",
        "marker_type": "city",
        "nation": "Arya"
      }
    },
    {
      "type": "Feature",
      "geometry": {
        "type": "Point",
        "coordinates": [
          47.1144752,
          34.2896593
        ]
      },
      "properties": {
        "name": "Perozshapur",
        "marker_type": "city",
        "nation": "Arya"
      }
    },
    {
      "type": "Feature",
      "geometry": {
        "type": "Point",
        "coordinates": [
          48.461898,
          34.8049277
        ]
      },
      "properties": {
        "name": "Ekbatana",
        "marker_type": "city",
        "nation": "Arya"
      }
    },
    {
      "type": "Feature",
      "geometry": {
        "type": "Point",
        "coordinates": [
          51.650432,
          32.6701531
        ]
      },
      "properties": {
        "name": "Isfahan",
        "marker_type": "city",
        "nation": "Arya"
      }
    },
    {
      "type": "Feature",
      "geometry": {
        "type": "Point",
        "coordinates": [
          44.5160066,
          33.1142776
        ]
      },
      "properties": {
        "name": "Ctesiphon",
        "marker_type": "city",
        "nation": "Arya"
      }
    },
    {
      "type": "Feature",
      "geometry": {
        "type": "Point",
        "coordinates": [116.407417, 39.904202]
      },
      "properties": {
        "name": "Beijing",
        "marker_type": "capital",
        "nation": "China"
      }
    },
    {
      "type": "Feature",
      "geometry": {
        "type": "Point",
        "coordinates": [121.473728, 31.230393]
      },
      "properties": {
        "name": "Shanghai",
        "marker_type": "city",
        "nation": "China"
      }
    },
    {
      "type": "Feature",
      "geometry": {
        "type": "Point",
        "coordinates": [113.26436, 23.12908]
      },
      "properties": {
        "name": "Guangzhou",
        "marker_type": "city",
        "nation": "China"
      }
    },
    {
      "type": "Feature",
      "geometry": {
        "type": "Point",
        "coordinates": [118.796877, 32.060255]
      },
      "properties": {
        "name": "Nanjing",
        "marker_type": "city",
        "nation": "China"
      }
    },
    {
      "type": "Feature",
      "geometry": {
        "type": "Point",
        "coordinates": [114.305469, 30.59276]
      },
      "properties": {
        "name": "Wuhan",
        "marker_type": "city",
        "nation": "China"
      }
    },
    {
      "type": "Feature",
      "geometry": {
        "type": "Point",
        "coordinates": [104.06651, 30.572269]
      },
      "properties": {
        "name": "Chengdu",
        "marker_type": "city",
        "nation": "China"
      }
    },
    {
      "type": "Feature",
      "geometry": {
        "type": "Point",
        "coordinates": [108.940178, 34.341568]
      },
      "properties": {
        "name": "Xi'an",
        "marker_type": "city",
        "nation": "China"
      }
    },
    {
      "type": "Feature",
      "geometry": {
        "type": "Point",
        "coordinates": [106.551556, 29.56301]
      },
      "properties": {
        "name": "Chongqing",
        "marker_type": "city",
        "nation": "China"
      }
    },
    {
      "type": "Feature",
      "geometry": {
        "type": "Point",
        "coordinates": [123.42944, 41.796767]
      },
      "properties": {
        "name": "Shenyang",
        "marker_type": "city",
        "nation": "China"
      }
    },
    {
      "type": "Feature",
      "geometry": {
        "type": "Point",
        "coordinates": [126.642423, 45.756195]
      },
      "properties": {
        "name": "Harbin",
        "marker_type": "city",
        "nation": "China"
      }
    },
    {
      "type": "Feature",
      "geometry": {
        "type": "Point",
        "coordinates": [131.885278, 43.119792]
      },
      "properties": {
        "name": "Vladivostok",
        "marker_type": "city",
        "nation": "China"
      }
    },
    {
      "type": "Feature",
      "geometry": {
        "type": "Point",
        "coordinates": [121.565414, 25.032964]
      },
      "properties": {
        "name": "Taipei",
        "marker_type": "city",
        "nation": "China"
      }
    },
    {
      "type": "Feature",
      "geometry": {
        "type": "Point",
        "coordinates": [119.30626, 26.075302]
      },
      "properties": {
        "name": "Fuzhou",
        "marker_type": "city",
        "nation": "China"
      }
    },
    {
      "type": "Feature",
      "geometry": {
        "type": "Point",
        "coordinates": [120.382602, 36.067116]
      },
      "properties": {
        "name": "Qingdao",
        "marker_type": "city",
        "nation": "China"
      }
    },
    {
      "type": "Feature",
      "geometry": {
        "type": "Point",
        "coordinates": [106.917315, 47.886399]
      },
      "properties": {
        "name": "Ulaanbaatar",
        "marker_type": "capital",
        "nation": "Mongolia"
      }
    },
    {
      "type": "Feature",
      "geometry": {
        "type": "Point",
        "coordinates": [114.532583, 48.072558]
      },
      "properties": {
        "name": "Choibalsan",
        "marker_type": "city",
        "nation": "Mongolia"
      }
    },
    {
      "type": "Feature",
      "geometry": {
        "type": "Point",
        "coordinates": [117.200983, 39.084158]
      },
      "properties": {
        "name": "Tianjin",
        "marker_type": "city",
        "nation": "China"
      }
    },
    {
      "type": "Feature",
      "geometry": {
        "type": "Point",
        "coordinates": [121.614682, 38.914003]
      },
      "properties": {
        "name": "Dalian",
        "marker_type": "city",
        "nation": "China"
      }
    },
    {
      "type": "Feature",
      "geometry": {
        "type": "Point",
        "coordinates": [125.323544, 43.817071]
      },
      "properties": {
        "name": "Changchun",
        "marker_type": "city",
        "nation": "China"
      }
    },
    {
      "type": "Feature",
      "geometry": {
        "type": "Point",
        "coordinates": [120.15507, 30.274085]
      },
      "properties": {
        "name": "Hangzhou",
        "marker_type": "city",
        "nation": "China"
      }
    },
    {
      "type": "Feature",
      "geometry": {
        "type": "Point",
        "coordinates": [121.549792, 29.868336]
      },
      "properties": {
        "name": "Ningbo",
        "marker_type": "city",
        "nation": "China"
      }
    },
    {
      "type": "Feature",
      "geometry": {
        "type": "Point",
        "coordinates": [118.089425, 24.479834]
      },
      "properties": {
        "name": "Xiamen",
        "marker_type": "city",
        "nation": "China"
      }
    },
    {
      "type": "Feature",
      "geometry": {
        "type": "Point",
        "coordinates": [114.057865, 22.543096]
      },
      "properties": {
        "name": "Shenzhen",
        "marker_type": "city",
        "nation": "China"
      }
    },
    {
      "type": "Feature",
      "geometry": {
        "type": "Point",
        "coordinates": [114.1694, 22.3193]
      },
      "properties": {
        "name": "Hong Kong",
        "marker_type": "city",
        "nation": "China"
      }
    },
    {
      "type": "Feature",
      "geometry": {
        "type": "Point",
        "coordinates": [113.5439, 22.1987]
      },
      "properties": {
        "name": "Macau",
        "marker_type": "city",
        "nation": "China"
      }
    },
    {
      "type": "Feature",
      "geometry": {
        "type": "Point",
        "coordinates": [112.938814, 28.228209]
      },
      "properties": {
        "name": "Changsha",
        "marker_type": "city",
        "nation": "China"
      }
    },
    {
      "type": "Feature",
      "geometry": {
        "type": "Point",
        "coordinates": [102.710002, 25.045806]
      },
      "properties": {
        "name": "Kunming",
        "marker_type": "city",
        "nation": "China"
      }
    },
    {
      "type": "Feature",
      "geometry": {
        "type": "Point",
        "coordinates": [108.366543, 22.817002]
      },
      "properties": {
        "name": "Nanning",
        "marker_type": "city",
        "nation": "China"
      }
    },
    {
      "type": "Feature",
      "geometry": {
        "type": "Point",
        "coordinates": [103.83417, 36.06138]
      },
      "properties": {
        "name": "Lanzhou",
        "marker_type": "city",
        "nation": "China"
      }
    },
    {
      "type": "Feature",
      "geometry": {
        "type": "Point",
        "coordinates": [111.74918, 40.84149]
      },
      "properties": {
        "name": "Hohhot",
        "marker_type": "city",
        "nation": "China"
      }
    },
    {
      "type": "Feature",
      "geometry": {
        "type": "Point",
        "coordinates": [120.312019, 22.627278]
      },
      "properties": {
        "name": "Kaohsiung",
        "marker_type": "city",
        "nation": "China"
      }
    },
    {
      "type": "Feature",
      "geometry": {
        "type": "Point",
        "coordinates": [105.922497, 49.486721]
      },
      "properties": {
        "name": "Darkhan",
        "marker_type": "city",
        "nation": "Mongolia"
      }
    },
    {
      "type": "Feature",
      "geometry": {
        "type": "Point",
        "coordinates": [22.9444, 40.6401]
      },
      "properties": {
        "name": "Thessalonica",
        "marker_type": "city",
        "nation": "Hellas"
      }
    },
    {
      "type": "Feature",
      "geometry": {
        "type": "Point",
        "coordinates": [23.7275, 37.9838]
      },
      "properties": {
        "name": "Athenae",
        "marker_type": "city",
        "nation": "Hellas"
      }
    },
    {
      "type": "Feature",
      "geometry": {
        "type": "Point",
        "coordinates": [21.7344, 38.2466]
      },
      "properties": {
        "name": "Patrai",
        "marker_type": "city",
        "nation": "Hellas"
      }
    },
    {
      "type": "Feature",
      "geometry": {
        "type": "Point",
        "coordinates": [25.1442, 35.3387]
      },
      "properties": {
        "name": "Herakleion",
        "marker_type": "city",
        "nation": "Hellas"
      }
    },
    {
      "type": "Feature",
      "geometry": {
        "type": "Point",
        "coordinates": [22.4131, 39.6390]
      },
      "properties": {
        "name": "Larisa",
        "marker_type": "city",
        "nation": "Hellas"
      }
    },
    {
      "type": "Feature",
      "geometry": {
        "type": "Point",
        "coordinates": [32.8597, 39.9334]
      },
      "properties": {
        "name": "Angora",
        "marker_type": "city",
        "nation": "Hellas"
      }
    },
    {
      "type": "Feature",
      "geometry": {
        "type": "Point",
        "coordinates": [39.7168, 41.0051]
      },
      "properties": {
        "name": "Trebizond",
        "marker_type": "city",
        "nation": "Hellas"
      }
    },
    {
      "type": "Feature",
      "geometry": {
        "type": "Point",
        "coordinates": [27.1384, 38.4237]
      },
      "properties": {
        "name": "Smyrna",
        "marker_type": "city",
        "nation": "Hellas"
      }
    },
    {
      "type": "Feature",
      "geometry": {
        "type": "Point",
        "coordinates": [26.2389, 39.9575]
      },
      "properties": {
        "name": "Troy",
        "marker_type": "city",
        "nation": "Hellas"
      }
    },
    {
      "type": "Feature",
      "geometry": {
        "type": "Point",
        "coordinates": [29.0610, 40.1815]
      },
      "properties": {
        "name": "Prusa",
        "marker_type": "city",
        "nation": "Hellas"
      }
    },
    {
      "type": "Feature",
      "geometry": {
        "type": "Point",
        "coordinates": [26.5568, 41.6764]
      },
      "properties": {
        "name": "Adrianople",
        "marker_type": "city",
        "nation": "Hellas"
      }
    },
    {
      "type": "Feature",
      "geometry": {
        "type": "Point",
        "coordinates": [29.7131, 40.4286]
      },
      "properties": {
        "name": "Nicaea",
        "marker_type": "city",
        "nation": "Hellas"
      }
    },
    {
      "type": "Feature",
      "geometry": {
        "type": "Point",
        "coordinates": [32.4833, 37.8667]
      },
      "properties": {
        "name": "Iconium",
        "marker_type": "city",
        "nation": "Hellas"
      }
    },
    {
      "type": "Feature",
      "geometry": {
        "type": "Point",
        "coordinates": [35.1531, 42.0264]
      },
      "properties": {
        "name": "Sinope",
        "marker_type": "city",
        "nation": "Hellas"
      }
    },
    {
      "type": "Feature",
      "geometry": {
        "type": "Point",
        "coordinates": [30.7133, 36.8841]
      },
      "properties": {
        "name": "Attalea",
        "marker_type": "city",
        "nation": "Hellas"
      }
    },
    {
      "type": "Feature",
      "geometry": {
        "type": "Point",
        "coordinates": [27.3414, 37.9409]
      },
      "properties": {
        "name": "Ephesus",
        "marker_type": "city",
        "nation": "Hellas"
      }
    },
    {
      "type": "Feature",
      "geometry": {
        "type": "Point",
        "coordinates": [29.9167, 40.7667]
      },
      "properties": {
        "name": "Nicomedia",
        "marker_type": "city",
        "nation": "Hellas"
      }
    },
    {
      "type": "Feature",
      "geometry": {
        "type": "Point",
        "coordinates": [24.7453, 42.1354]
      },
      "properties": {
        "name": "Philippopolis",
        "marker_type": "city",
        "nation": "Hellas"
      }
    },
    {
      "type": "Feature",
      "geometry": {
        "type": "Point",
        "coordinates": [21.8954, 43.3209]
      },
      "properties": {
        "name": "Naissus",
        "marker_type": "city",
        "nation": "Hellas"
      }
    },
    {
      "type": "Feature",
      "geometry": {
        "type": "Point",
        "coordinates": [19.4414, 41.3236]
      },
      "properties": {
        "name": "Dyrrhachium",
        "marker_type": "city",
        "nation": "Hellas"
      }
    },
    {
      "type": "Feature",
      "geometry": {
        "type": "Point",
        "coordinates": [16.4402, 43.5081]
      },
      "properties": {
        "name": "Spalatum",
        "marker_type": "city",
        "nation": "Hellas"
      }
    },
    {
      "type": "Feature",
      "geometry": {
        "type": "Point",
        "coordinates": [20.4489, 44.7872]
      },
      "properties": {
        "name": "Singidunum",
        "marker_type": "city",
        "nation": "Hellas"
      }
    },
    {
      "type": "Feature",
      "geometry": {
        "type": "Point",
        "coordinates": [22.4297, 37.0745]
      },
      "properties": {
        "name": "Sparte",
        "marker_type": "city",
        "nation": "Hellas"
      }
    },
    {
      "type": "Feature",
      "geometry": {
        "type": "Point",
        "coordinates": [22.9386, 37.9386]
      },
      "properties": {
        "name": "Korinthos",
        "marker_type": "city",
        "nation": "Hellas"
      }
    },
    {
      "type": "Feature",
      "geometry": {
        "type": "Point",
        "coordinates": [23.3204, 38.3226]
      },
      "properties": {
        "name": "Thebai",
        "marker_type": "city",
        "nation": "Hellas"
      }
    },
    {
      "type": "Feature",
      "geometry": {
        "type": "Point",
        "coordinates": [22.7294, 37.6344]
      },
      "properties": {
        "name": "Argos",
        "marker_type": "city",
        "nation": "Hellas"
      }
    },
    {
      "type": "Feature",
      "geometry": {
        "type": "Point",
        "coordinates": [22.8016, 37.5673]
      },
      "properties": {
        "name": "Nauplion",
        "marker_type": "city",
        "nation": "Hellas"
      }
    },
    {
      "type": "Feature",
      "geometry": {
        "type": "Point",
        "coordinates": [24.2846, 41.0131]
      },
      "properties": {
        "name": "Philippoi",
        "marker_type": "city",
        "nation": "Hellas"
      }
    },
    {
      "type": "Feature",
      "geometry": {
        "type": "Point",
        "coordinates": [23.3219, 42.6977]
      },
      "properties": {
        "name": "Serdike",
        "marker_type": "city",
        "nation": "Hellas"
      }
    },
    {
      "type": "Feature",
      "geometry": {
        "type": "Point",
        "coordinates": [27.9147, 43.2141]
      },
      "properties": {
        "name": "Odessos",
        "marker_type": "city",
        "nation": "Hellas"
      }
    },
    {
      "type": "Feature",
      "geometry": {
        "type": "Point",
        "coordinates": [27.4626, 42.5048]
      },
      "properties": {
        "name": "Pyrgos",
        "marker_type": "city",
        "nation": "Hellas"
      }
    },
    {
      "type": "Feature",
      "geometry": {
        "type": "Point",
        "coordinates": [21.4314, 42.0020]
      },
      "properties": {
        "name": "Skoupoi",
        "marker_type": "city",
        "nation": "Hellas"
      }
    },
    {
      "type": "Feature",
      "geometry": {
        "type": "Point",
        "coordinates": [20.8016, 41.1172]
      },
      "properties": {
        "name": "Lychnidos",
        "marker_type": "city",
        "nation": "Hellas"
      }
    },
    {
      "type": "Feature",
      "geometry": {
        "type": "Point",
        "coordinates": [18.0944, 42.6507]
      },
      "properties": {
        "name": "Ragousa",
        "marker_type": "city",
        "nation": "Hellas"
      }
    },
    {
      "type": "Feature",
      "geometry": {
        "type": "Point",
        "coordinates": [16.4828, 43.5369]
      },
      "properties": {
        "name": "Salona",
        "marker_type": "city",
        "nation": "Hellas"
      }
    },
    {
      "type": "Feature",
      "geometry": {
        "type": "Point",
        "coordinates": [29.0325, 40.9910]
      },
      "properties": {
        "name": "Chalkedon",
        "marker_type": "city",
        "nation": "Hellas"
      }
    },
    {
      "type": "Feature",
      "geometry": {
        "type": "Point",
        "coordinates": [27.1842, 39.1325]
      },
      "properties": {
        "name": "Pergamon",
        "marker_type": "city",
        "nation": "Hellas"
      }
    },
    {
      "type": "Feature",
      "geometry": {
        "type": "Point",
        "coordinates": [27.4242, 37.0344]
      },
      "properties": {
        "name": "Halikarnassos",
        "marker_type": "city",
        "nation": "Hellas"
      }
    },
    {
      "type": "Feature",
      "geometry": {
        "type": "Point",
        "coordinates": [28.0403, 38.4883]
      },
      "properties": {
        "name": "Sardeis",
        "marker_type": "city",
        "nation": "Hellas"
      }
    },
    {
      "type": "Feature",
      "geometry": {
        "type": "Point",
        "coordinates": [30.5206, 39.7767]
      },
      "properties": {
        "name": "Dorylaion",
        "marker_type": "city",
        "nation": "Hellas"
      }
    },
    {
      "type": "Feature",
      "geometry": {
        "type": "Point",
        "coordinates": [35.4853, 38.7205]
      },
      "properties": {
        "name": "Kaisareia",
        "marker_type": "city",
        "nation": "Hellas"
      }
    },
    {
      "type": "Feature",
      "geometry": {
        "type": "Point",
        "coordinates": [37.0150, 39.7505]
      },
      "properties": {
        "name": "Sebasteia",
        "marker_type": "city",
        "nation": "Hellas"
      }
    },
    {
      "type": "Feature",
      "geometry": {
        "type": "Point",
        "coordinates": [35.8333, 40.6500]
      },
      "properties": {
        "name": "Amaseia",
        "marker_type": "city",
        "nation": "Hellas"
      }
    },
    {
      "type": "Feature",
      "geometry": {
        "type": "Point",
        "coordinates": [34.8951, 36.9164]
      },
      "properties": {
        "name": "Tarsos",
        "marker_type": "city",
        "nation": "Hellas"
      }
    },
    {
      "type": "Feature",
      "geometry": {
        "type": "Point",
        "coordinates": [27.8847, 40.3842]
      },
      "properties": {
        "name": "Kyzikos",
        "marker_type": "city",
        "nation": "Hellas"
      }
    },
    {
      "type": "Feature",
      "geometry": {
        "type": "Point",
        "coordinates": [28.5192, 38.3483]
      },
      "properties": {
        "name": "Philadelphia",
        "marker_type": "city",
        "nation": "Hellas"
      }
    },
    {
      "type": "Feature",
      "geometry": {
        "type": "Point",
        "coordinates": [12.4964, 41.9028]
      },
      "properties": {
        "name": "Rhome",
        "marker_type": "city",
        "nation": "Hellas"
      }
    },
    {
      "type": "Feature",
      "geometry": {
        "type": "Point",
        "coordinates": [14.2681, 40.8518]
      },
      "properties": {
        "name": "Neapolis",
        "marker_type": "city",
        "nation": "Hellas"
      }
    },
    {
      "type": "Feature",
      "geometry": {
        "type": "Point",
        "coordinates": [9.1900, 45.4642]
      },
      "properties": {
        "name": "Mediolanon",
        "marker_type": "city",
        "nation": "Hellas"
      }
    },
    {
      "type": "Feature",
      "geometry": {
        "type": "Point",
        "coordinates": [12.3155, 45.4408]
      },
      "properties": {
        "name": "Venetia",
        "marker_type": "city",
        "nation": "Hellas"
      }
    },
    {
      "type": "Feature",
      "geometry": {
        "type": "Point",
        "coordinates": [12.2035, 44.4184]
      },
      "properties": {
        "name": "Rabeuna",
        "marker_type": "city",
        "nation": "Hellas"
      }
    },
    {
      "type": "Feature",
      "geometry": {
        "type": "Point",
        "coordinates": [8.9463, 44.4056]
      },
      "properties": {
        "name": "Genoua",
        "marker_type": "city",
        "nation": "Hellas"
      }
    },
    {
      "type": "Feature",
      "geometry": {
        "type": "Point",
        "coordinates": [13.3615, 38.1157]
      },
      "properties": {
        "name": "Panormos",
        "marker_type": "city",
        "nation": "Hellas"
      }
    },
    {
      "type": "Feature",
      "geometry": {
        "type": "Point",
        "coordinates": [15.2866, 37.0755]
      },
      "properties": {
        "name": "Syrakousai",
        "marker_type": "city",
        "nation": "Hellas"
      }
    },
    {
      "type": "Feature",
      "geometry": {
        "type": "Point",
        "coordinates": [11.2558, 43.7696]
      },
      "properties": {
        "name": "Florentia",
        "marker_type": "city",
        "nation": "Hellas"
      }
    },
    {
      "type": "Feature",
      "geometry": {
        "type": "Point",
        "coordinates": [7.6869, 45.0703]
      },
      "properties": {
        "name": "Taurinon",
        "marker_type": "city",
        "nation": "Hellas"
      }
    },
    {
      "type": "Feature",
      "geometry": {
        "type": "Point",
        "coordinates": [16.8719, 41.1171]
      },
      "properties": {
        "name": "Barion",
        "marker_type": "city",
        "nation": "Hellas"
      }
    },
    {
      "type": "Feature",
      "geometry": {
        "type": "Point",
        "coordinates": [17.2442, 40.4644]
      },
      "properties": {
        "name": "Taras",
        "marker_type": "city",
        "nation": "Hellas"
      }
    },
    {
      "type": "Feature",
      "geometry": {
        "type": "Point",
        "coordinates": [15.5500, 38.1936]
      },
      "properties": {
        "name": "Messene",
        "marker_type": "city",
        "nation": "Hellas"
      }
    },
    {
      "type": "Feature",
      "geometry": {
        "type": "Point",
        "coordinates": [15.6448, 38.1144]
      },
      "properties": {
        "name": "Rhegion",
        "marker_type": "city",
        "nation": "Hellas"
      }
    },
    {
      "type": "Feature",
      "geometry": {
        "type": "Point",
        "coordinates": [13.5189, 43.6158]
      },
      "properties": {
        "name": "Ankon",
        "marker_type": "city",
        "nation": "Hellas"
      }
    },
    {
      "type": "Feature",
      "geometry": {
        "type": "Point",
        "coordinates": [17.9418, 40.6321]
      },
      "properties": {
        "name": "Brentesion",
        "marker_type": "city",
        "nation": "Hellas"
      }
    },
    {
      "type": "Feature",
      "geometry": {
        "type": "Point",
        "coordinates": [11.3426, 44.4949]
      },
      "properties": {
        "name": "Bononia",
        "marker_type": "city",
        "nation": "Hellas"
      }
    },
    {
      "type": "Feature",
      "geometry": {
        "type": "Point",
        "coordinates": [8.7386, 41.9257]
      },
      "properties": {
        "name": "Adiakion",
        "marker_type": "city",
        "nation": "Hellas"
      }
    },
    {
      "type": "Feature",
      "geometry": {
        "type": "Point",
        "coordinates": [9.5128, 42.1047]
      },
      "properties": {
        "name": "Alalia",
        "marker_type": "city",
        "nation": "Hellas"
      }
    },
    {
      "type": "Feature",
      "geometry": {
        "type": "Point",
        "coordinates": [2.3522, 48.8566]
      },
      "properties": {
        "name": "Paris",
        "marker_type": "city",
        "nation": "Hellas"
      }
    },
    {
      "type": "Feature",
      "geometry": {
        "type": "Point",
        "coordinates": [5.3698, 43.2965]
      },
      "properties": {
        "name": "Marseille",
        "marker_type": "city",
        "nation": "Hellas"
      }
    },
    {
      "type": "Feature",
      "geometry": {
        "type": "Point",
        "coordinates": [4.8357, 45.7640]
      },
      "properties": {
        "name": "Lyon",
        "marker_type": "city",
        "nation": "Hellas"
      }
    },
    {
      "type": "Feature",
      "geometry": {
        "type": "Point",
        "coordinates": [1.4442, 43.6047]
      },
      "properties": {
        "name": "Toulouse",
        "marker_type": "city",
        "nation": "Hellas"
      }
    },
    {
      "type": "Feature",
      "geometry": {
        "type": "Point",
        "coordinates": [7.2661, 43.7102]
      },
      "properties": {
        "name": "Nice",
        "marker_type": "city",
        "nation": "Hellas"
      }
    },
    {
      "type": "Feature",
      "geometry": {
        "type": "Point",
        "coordinates": [-1.5536, 47.2184]
      },
      "properties": {
        "name": "Nantes",
        "marker_type": "city",
        "nation": "Hellas"
      }
    },
    {
      "type": "Feature",
      "geometry": {
        "type": "Point",
        "coordinates": [7.7521, 48.5734]
      },
      "properties": {
        "name": "Strasbourg",
        "marker_type": "city",
        "nation": "Hellas"
      }
    },
    {
      "type": "Feature",
      "geometry": {
        "type": "Point",
        "coordinates": [-0.5792, 44.8378]
      },
      "properties": {
        "name": "Bordeaux",
        "marker_type": "city",
        "nation": "Hellas"
      }
    },
    {
      "type": "Feature",
      "geometry": {
        "type": "Point",
        "coordinates": [3.0573, 50.6292]
      },
      "properties": {
        "name": "Lille",
        "marker_type": "city",
        "nation": "Hellas"
      }
    },
    {
      "type": "Feature",
      "geometry": {
        "type": "Point",
        "coordinates": [-1.6778, 48.1173]
      },
      "properties": {
        "name": "Rennes",
        "marker_type": "city",
        "nation": "Appalachia"
      }
    },
    {
      "type": "Feature",
      "geometry": {
        "type": "Point",
        "coordinates": [4.0333, 49.2583]
      },
      "properties": {
        "name": "Reims",
        "marker_type": "city",
        "nation": "Hellas"
      }
    },
    {
      "type": "Feature",
      "geometry": {
        "type": "Point",
        "coordinates": [0.1083, 49.4944]
      },
      "properties": {
        "name": "Le Havre",
        "marker_type": "city",
        "nation": "Hellas"
      }
    },
    {
      "type": "Feature",
      "geometry": {
        "type": "Point",
        "coordinates": [5.9280, 43.1242]
      },
      "properties": {
        "name": "Toulon",
        "marker_type": "city",
        "nation": "Hellas"
      }
    },
    {
      "type": "Feature",
      "geometry": {
        "type": "Point",
        "coordinates": [5.7245, 45.1885]
      },
      "properties": {
        "name": "Grenoble",
        "marker_type": "city",
        "nation": "Hellas"
      }
    },
    {
      "type": "Feature",
      "geometry": {
        "type": "Point",
        "coordinates": [5.0415, 47.3220]
      },
      "properties": {
        "name": "Dijon",
        "marker_type": "city",
        "nation": "Hellas"
      }
    },
    {
      "type": "Feature",
      "geometry": {
        "type": "Point",
        "coordinates": [-4.4861, 48.3904]
      },
      "properties": {
        "name": "Brest",
        "marker_type": "city",
        "nation": "Appalachia"
      }
    },
    {
      "type": "Feature",
      "geometry": {
        "type": "Point",
        "coordinates": [3.2012, 45.7772]
      },
      "properties": {
        "name": "Clermont-Ferrand",
        "marker_type": "city",
        "nation": "Hellas"
      }
    },
    {
      "type": "Feature",
      "geometry": {
        "type": "Point",
        "coordinates": [1.2588, 45.8336]
      },
      "properties": {
        "name": "Limoges",
        "marker_type": "city",
        "nation": "Hellas"
      }
    },
    {
      "type": "Feature",
      "geometry": {
        "type": "Point",
        "coordinates": [-0.3707, 49.1829]
      },
      "properties": {
        "name": "Caen",
        "marker_type": "city",
        "nation": "Hellas"
      }
    },
    {
      "type": "Feature",
      "geometry": {
        "type": "Point",
        "coordinates": [0.6848, 47.3941]
      },
      "properties": {
        "name": "Tours",
        "marker_type": "city",
        "nation": "Hellas"
      }
    },
    {
      "type": "Feature",
      "geometry": {
        "type": "Point",
        "coordinates": [1.9085, 47.9030]
      },
      "properties": {
        "name": "Orléans",
        "marker_type": "city",
        "nation": "Hellas"
      }
    },
    {
      "type": "Feature",
      "geometry": {
        "type": "Point",
        "coordinates": [0.1996, 48.0061]
      },
      "properties": {
        "name": "Le Mans",
        "marker_type": "city",
        "nation": "Hellas"
      }
    },
    {
      "type": "Feature",
      "geometry": {
        "type": "Point",
        "coordinates": [1.0993, 49.4431]
      },
      "properties": {
        "name": "Rouen",
        "marker_type": "city",
        "nation": "Hellas"
      }
    },
    {
      "type": "Feature",
      "geometry": {
        "type": "Point",
        "coordinates": [2.2957, 49.8941]
      },
      "properties": {
        "name": "Amiens",
        "marker_type": "city",
        "nation": "Hellas"
      }
    },
    {
      "type": "Feature",
      "geometry": {
        "type": "Point",
        "coordinates": [6.1757, 49.1193]
      },
      "properties": {
        "name": "Metz",
        "marker_type": "city",
        "nation": "Hellas"
      }
    },
    {
      "type": "Feature",
      "geometry": {
        "type": "Point",
        "coordinates": [6.1834, 48.6921]
      },
      "properties": {
        "name": "Nancy",
        "marker_type": "city",
        "nation": "Hellas"
      }
    },
    {
      "type": "Feature",
      "geometry": {
        "type": "Point",
        "coordinates": [4.8055, 43.9493]
      },
      "properties": {
        "name": "Avignon",
        "marker_type": "city",
        "nation": "Hellas"
      }
    },
    {
      "type": "Feature",
      "geometry": {
        "type": "Point",
        "coordinates": [2.8956, 42.6986]
      },
      "properties": {
        "name": "Perpignan",
        "marker_type": "city",
        "nation": "Hellas"
      }
    }
  ]
}
