{
  "type": "FeatureCollection",
  "features": [
    {
      "type": "Feature",
      "geometry": {
        "type": "Point",
        "coordinates": [37.2122272, 19.6159683]
      },
      "properties": {
        "name": "Port Sudan",
        "marker_type": "city",
        "nation": "Arya"
      }
    },
    {
      "type": "Feature",
      "geometry": {
        "type": "Point",
        "coordinates": [32.6699457, 13.1569422]
      },
      "properties": {
        "name": "Kosti",
        "marker_type": "city",
        "nation": "Arya"
      }
    },
    {
      "type": "Feature",
      "geometry": {
        "type": "Point",
        "coordinates": [12.7273081, 32.7565033]
      },
      "properties": {
        "name": "Zawiyah",
        "marker_type": "city",
        "nation": "Arya"
      }
    },
    {
      "type": "Feature",
      "geometry": {
        "type": "Point",
        "coordinates": [32.5471008, 15.6474484]
      },
      "properties": {
        "name": "Bahri",
        "marker_type": "city",
        "nation": "Arya"
      }
    },
    {
      "type": "Feature",
      "geometry": {
        "type": "Point",
        "coordinates": [31.3511974, 21.8008996]
      },
      "properties": {
        "name": "Wadi Halfa",
        "marker_type": "city",
        "nation": "Arya"
      }
    },
    {
      "type": "Feature",
      "geometry": {
        "type": "Point",
        "coordinates": [35.3929686, 14.0411413]
      },
      "properties": {
        "name": "Qadarif",
        "marker_type": "city",
        "nation": "Arya"
      }
    },
    {
      "type": "Feature",
      "geometry": {
        "type": "Point",
        "coordinates": [37.310795, 19.1008617]
      },
      "properties": {
        "name": "Sawakin",
        "marker_type": "city",
        "nation": "Arya"
      }
    },
    {
      "type": "Feature",
      "geometry": {
        "type": "Point",
        "coordinates": [32.6396, 25.6872]
      },
      "properties": {
        "name": "Luxor",
        "marker_type": "city",
        "nation": "Arya"
      }
    },
    {
      "type": "Feature",
      "geometry": {
        "type": "Point",
        "coordinates": [57.6311326, 19.6230696]
      },
      "properties": {
        "name": "Duqm",
        "marker_type": "city",
        "nation": "Arya"
      }
    },
    {
      "type": "Feature",
      "geometry": {
        "type": "Point",
        "coordinates": [92.0602, 31.4763]
      },
      "properties": {
        "name": "Nagqu",
        "marker_type": "city",
        "nation": "Tibet"
      }
    },
    {
      "type": "Feature",
      "geometry": {
        "type": "Point",
        "coordinates": [94.8811882, 36.3236501]
      },
      "properties": {
        "name": "Golmud",
        "marker_type": "city",
        "nation": "Tibet"
      }
    },
    {
      "type": "Feature",
      "geometry": {
        "type": "Point",
        "coordinates": [76.0780927, 34.5444627]
      },
      "properties": {
        "name": "Kargil",
        "marker_type": "city",
        "nation": "Tibet"
      }
    },
    {
      "type": "Feature",
      "geometry": {
        "type": "Point",
        "coordinates": [74.3007799, 35.8235971]
      },
      "properties": {
        "name": "Gilgit",
        "marker_type": "city",
        "nation": "Tibet"
      }
    },
    {
      "type": "Feature",
      "geometry": {
        "type": "Point",
        "coordinates": [88.8813, 29.2672]
      },
      "properties": {
        "name": "Xigazē",
        "marker_type": "city",
        "nation": "Tibet"
      }
    },
    {
      "type": "Feature",
      "geometry": {
        "type": "Point",
        "coordinates": [31.4997396, 30.5850935]
      },
      "properties": {
        "name": "Zagazig",
        "marker_type": "city",
        "nation": "Arya"
      }
    },
    {
      "type": "Feature",
      "geometry": {
        "type": "Point",
        "coordinates": [31.596074, 31.0859172]
      },
      "properties": {
        "name": "Dikirnis",
        "marker_type": "city",
        "nation": "Arya"
      }
    },
    {
      "type": "Feature",
      "geometry": {
        "type": "Point",
        "coordinates": [31.247724, 30.7138987]
      },
      "properties": {
        "name": "Mit Shamr",
        "marker_type": "city",
        "nation": "Arya"
      }
    },
    {
      "type": "Feature",
      "geometry": {
        "type": "Point",
        "coordinates": [31.1632373, 30.9729402]
      },
      "properties": {
        "name": "Al Mahalla El Kubra",
        "marker_type": "city",
        "nation": "Arya"
      }
    },
    {
      "type": "Feature",
      "geometry": {
        "type": "Point",
        "coordinates": [30.6394876, 31.1284807]
      },
      "properties": {
        "name": "Dusuk",
        "marker_type": "city",
        "nation": "Arya"
      }
    },
    {
      "type": "Feature",
      "geometry": {
        "type": "Point",
        "coordinates": [31.1859934, 30.4588179]
      },
      "properties": {
        "name": "Banha",
        "marker_type": "city",
        "nation": "Arya"
      }
    },
    {
      "type": "Feature",
      "geometry": {
        "type": "Point",
        "coordinates": [30.9394658, 31.1089407]
      },
      "properties": {
        "name": "Kafr Al Shiekh",
        "marker_type": "city",
        "nation": "Arya"
      }
    },
    {
      "type": "Feature",
      "geometry": {
        "type": "Point",
        "coordinates": [30.4480172, 31.0398899]
      },
      "properties": {
        "name": "Damanhur",
        "marker_type": "city",
        "nation": "Arya"
      }
    },
    {
      "type": "Feature",
      "geometry": {
        "type": "Point",
        "coordinates": [29.9394373, 31.1930998]
      },
      "properties": {
        "name": "Alexandria",
        "marker_type": "city",
        "nation": "Arya"
      }
    },
    {
      "type": "Feature",
      "geometry": {
        "type": "Point",
        "coordinates": [31.95548, 30.5481182]
      },
      "properties": {
        "name": "Heropolis",
        "marker_type": "city",
        "nation": "Arya"
      }
    },
    {
      "type": "Feature",
      "geometry": {
        "type": "Point",
        "coordinates": [31.3761015, 31.0345902]
      },
      "properties": {
        "name": "El Mansoura",
        "marker_type": "city",
        "nation": "Arya"
      }
    },
    {
      "type": "Feature",
      "geometry": {
        "type": "Point",
        "coordinates": [37.1581471, 36.1983222]
      },
      "properties": {
        "name": "Aleppo",
        "marker_type": "city",
        "nation": "Arya"
      }
    },
    {
      "type": "Feature",
      "geometry": {
        "type": "Point",
        "coordinates": [44.3406019, 31.9963334]
      },
      "properties": {
        "name": "Al Najaf",
        "marker_type": "city",
        "nation": "Arya"
      }
    },
    {
      "type": "Feature",
      "geometry": {
        "type": "Point",
        "coordinates": [46.2622074, 31.0251038]
      },
      "properties": {
        "name": "Nasiriyah",
        "marker_type": "city",
        "nation": "Arya"
      }
    },
    {
      "type": "Feature",
      "geometry": {
        "type": "Point",
        "coordinates": [44.0201557, 36.1941386]
      },
      "properties": {
        "name": "Arbela",
        "marker_type": "city",
        "nation": "Arya"
      }
    },
    {
      "type": "Feature",
      "geometry": {
        "type": "Point",
        "coordinates": [45.4281704, 35.5470818]
      },
      "properties": {
        "name": "Sulaymaniyah",
        "marker_type": "city",
        "nation": "Arya"
      }
    },
    {
      "type": "Feature",
      "geometry": {
        "type": "Point",
        "coordinates": [44.5292518, 33.1093548]
      },
      "properties": {
        "name": "Ctesiphon",
        "marker_type": "city",
        "nation": "Arya"
      }
    },
    {
      "type": "Feature",
      "geometry": {
        "type": "Point",
        "coordinates": [45.8181194, 32.5109157]
      },
      "properties": {
        "name": "Al Kut",
        "marker_type": "city",
        "nation": "Arya"
      }
    },
    {
      "type": "Feature",
      "geometry": {
        "type": "Point",
        "coordinates": [44.3829677, 33.3251237]
      },
      "properties": {
        "name": "Baghdad",
        "marker_type": "city",
        "nation": "Arya"
      }
    },
    {
      "type": "Feature",
      "geometry": {
        "type": "Point",
        "coordinates": [33.798741, 31.1276325]
      },
      "properties": {
        "name": "El Arish",
        "marker_type": "city",
        "nation": "Arya"
      }
    },
    {
      "type": "Feature",
      "geometry": {
        "type": "Point",
        "coordinates": [35.001253, 29.5210998]
      },
      "properties": {
        "name": "Aqaba",
        "marker_type": "city",
        "nation": "Arya"
      }
    },
    {
      "type": "Feature",
      "geometry": {
        "type": "Point",
        "coordinates": [33.9387694, 28.5606071]
      },
      "properties": {
        "name": "Saint Catherine",
        "marker_type": "city",
        "nation": "Arya"
      }
    },
    {
      "type": "Feature",
      "geometry": {
        "type": "Point",
        "coordinates": [32.2967582, 31.2624865]
      },
      "properties": {
        "name": "Port Said",
        "marker_type": "city",
        "nation": "Arya"
      }
    },
    {
      "type": "Feature",
      "geometry": {
        "type": "Point",
        "coordinates": [30.9927127, 30.7803856]
      },
      "properties": {
        "name": "Tanta",
        "marker_type": "city",
        "nation": "Arya"
      }
    },
    {
      "type": "Feature",
      "geometry": {
        "type": "Point",
        "coordinates": [31.8298899, 31.4133603]
      },
      "properties": {
        "name": "Dameitta",
        "marker_type": "city",
        "nation": "Arya"
      }
    },
    {
      "type": "Feature",
      "geometry": {
        "type": "Point",
        "coordinates": [30.8401082, 29.3105112]
      },
      "properties": {
        "name": "Faiyum",
        "marker_type": "city",
        "nation": "Arya"
      }
    },
    {
      "type": "Feature",
      "geometry": {
        "type": "Point",
        "coordinates": [30.756384, 28.0858325]
      },
      "properties": {
        "name": "Al Minya",
        "marker_type": "city",
        "nation": "Arya"
      }
    },
    {
      "type": "Feature",
      "geometry": {
        "type": "Point",
        "coordinates": [34.5163003, 28.4975995]
      },
      "properties": {
        "name": "Dahab",
        "marker_type": "city",
        "nation": "Arya"
      }
    },
    {
      "type": "Feature",
      "geometry": {
        "type": "Point",
        "coordinates": [35.2197313, 31.7773373]
      },
      "properties": {
        "name": "Jerusalem",
        "marker_type": "city",
        "nation": "Arya"
      }
    },
    {
      "type": "Feature",
      "geometry": {
        "type": "Point",
        "coordinates": [55.7418315, 24.2262449]
      },
      "properties": {
        "name": "Al Ain",
        "marker_type": "city",
        "nation": "Arya"
      }
    },
    {
      "type": "Feature",
      "geometry": {
        "type": "Point",
        "coordinates": [56.2467796, 26.1866529]
      },
      "properties": {
        "name": "Khasab",
        "marker_type": "city",
        "nation": "Arya"
      }
    },
    {
      "type": "Feature",
      "geometry": {
        "type": "Point",
        "coordinates": [62.873, 37.6027]
      },
      "properties": {
        "name": "Noori Zevar",
        "marker_type": "city",
        "nation": "Arya"
      }
    },
    {
      "type": "Feature",
      "geometry": {
        "type": "Point",
        "coordinates": [58.5928131, 23.6143251]
      },
      "properties": {
        "name": "Muscat",
        "marker_type": "city",
        "nation": "Arya"
      }
    },
    {
      "type": "Feature",
      "geometry": {
        "type": "Point",
        "coordinates": [28.9737479, 41.0091879]
      },
      "properties": {
        "name": "Constantinople",
        "marker_type": "capital",
        "nation": "Hellas"
      }
    },
    {
      "type": "Feature",
      "geometry": {
        "type": "Point",
        "coordinates": [68.8667388, 36.7180523]
      },
      "properties": {
        "name": "Drapsaka-Kunduz",
        "marker_type": "city",
        "nation": "Arya"
      }
    },
    {
      "type": "Feature",
      "geometry": {
        "type": "Point",
        "coordinates": [61.832584, 37.5994985]
      },
      "properties": {
        "name": "Merv",
        "marker_type": "city",
        "nation": "Arya"
      }
    },
    {
      "type": "Feature",
      "geometry": {
        "type": "Point",
        "coordinates": [66.9779799, 39.6629797]
      },
      "properties": {
        "name": "Samarqand",
        "marker_type": "city",
        "nation": "Arya"
      }
    },
    {
      "type": "Feature",
      "geometry": {
        "type": "Point",
        "coordinates": [64.4182607, 39.7684352]
      },
      "properties": {
        "name": "Bukhara",
        "marker_type": "city",
        "nation": "Arya"
      }
    },
    {
      "type": "Feature",
      "geometry": {
        "type": "Point",
        "coordinates": [34.2522472, 31.2748986]
      },
      "properties": {
        "name": "Raphia",
        "marker_type": "city",
        "nation": "Arya"
      }
    },
    {
      "type": "Feature",
      "geometry": {
        "type": "Point",
        "coordinates": [34.4539936, 31.5159126]
      },
      "properties": {
        "name": "Gaza",
        "marker_type": "city",
        "nation": "Arya"
      }
    },
    {
      "type": "Feature",
      "geometry": {
        "type": "Point",
        "coordinates": [43.6770018, 34.6159894]
      },
      "properties": {
        "name": "Perozhormizd",
        "marker_type": "city",
        "nation": "Arya"
      }
    },
    {
      "type": "Feature",
      "geometry": {
        "type": "Point",
        "coordinates": [34.5635952, 31.6686048]
      },
      "properties": {
        "name": "Ascalum",
        "marker_type": "city",
        "nation": "Arya"
      }
    },
    {
      "type": "Feature",
      "geometry": {
        "type": "Point",
        "coordinates": [35.9205553, 31.9492599]
      },
      "properties": {
        "name": "Amman",
        "marker_type": "city",
        "nation": "Arya"
      }
    },
    {
      "type": "Feature",
      "geometry": {
        "type": "Point",
        "coordinates": [34.781192, 32.0868418]
      },
      "properties": {
        "name": "Jaffa",
        "marker_type": "city",
        "nation": "Arya"
      }
    },
    {
      "type": "Feature",
      "geometry": {
        "type": "Point",
        "coordinates": [35.3042847, 32.7072172]
      },
      "properties": {
        "name": "Nazareth",
        "marker_type": "city",
        "nation": "Arya"
      }
    },
    {
      "type": "Feature",
      "geometry": {
        "type": "Point",
        "coordinates": [35.0292801, 32.8030393]
      },
      "properties": {
        "name": "Haifa",
        "marker_type": "city",
        "nation": "Arya"
      }
    },
    {
      "type": "Feature",
      "geometry": {
        "type": "Point",
        "coordinates": [35.1947564, 33.2706431]
      },
      "properties": {
        "name": "Tyros",
        "marker_type": "city",
        "nation": "Arya"
      }
    },
    {
      "type": "Feature",
      "geometry": {
        "type": "Point",
        "coordinates": [35.3698643, 33.5573094]
      },
      "properties": {
        "name": "Sidon",
        "marker_type": "city",
        "nation": "Arya"
      }
    },
    {
      "type": "Feature",
      "geometry": {
        "type": "Point",
        "coordinates": [35.8260979, 34.4401073]
      },
      "properties": {
        "name": "Tripoli-Perozcyrus",
        "marker_type": "city",
        "nation": "Arya"
      }
    },
    {
      "type": "Feature",
      "geometry": {
        "type": "Point",
        "coordinates": [35.6508955, 34.1267511]
      },
      "properties": {
        "name": "Byblos",
        "marker_type": "city",
        "nation": "Arya"
      }
    },
    {
      "type": "Feature",
      "geometry": {
        "type": "Point",
        "coordinates": [35.4854024, 33.894218]
      },
      "properties": {
        "name": "Beirut",
        "marker_type": "city",
        "nation": "Arya"
      }
    },
    {
      "type": "Feature",
      "geometry": {
        "type": "Point",
        "coordinates": [36.7145883, 34.722895]
      },
      "properties": {
        "name": "Emesa",
        "marker_type": "city",
        "nation": "Arya"
      }
    },
    {
      "type": "Feature",
      "geometry": {
        "type": "Point",
        "coordinates": [36.7518349, 35.1345781]
      },
      "properties": {
        "name": "Epiphaneia",
        "marker_type": "city",
        "nation": "Arya"
      }
    },
    {
      "type": "Feature",
      "geometry": {
        "type": "Point",
        "coordinates": [36.3035825, 33.5086098]
      },
      "properties": {
        "name": "Damascus",
        "marker_type": "city",
        "nation": "Arya"
      }
    }
  ]
}
